[('compass', 0.0), ('cur0', 0.0), ('cur1', 0.0), ('cur2', 0.0), ('datetime', '2019-09-20 11:04:50.494830'), ('depth', 366518.94), ('flw0', 0), ('flw1', 0), ('flw2', 0), ('flw3', 0), ('lipoC2', 6.43), ('lipoC3S3', 7.48), ('mgs', 1), ('pitch', 0.0), ('roll', 0.0), ('rot0', 0), ('rot1', 0), ('rot2', 0), ('rot3', 0), ('state', 'd9_error'), ('thr0', 0.0), ('thr1', 27.0), ('thr2', 27.0), ('thr3', 27.0), ('time', 84.71), ('watertemp', -2273.69), ('yaw', 0.0)]
[('compass', 0.0), ('cur0', 0.0), ('cur1', 0.0), ('cur2', 0.0), ('datetime', '2019-09-20 11:04:50.699808'), ('depth', 366518.94), ('flw0', 0), ('flw1', 0), ('flw2', 0), ('flw3', 0), ('lipoC2', 6.43), ('lipoC3S3', 7.48), ('mgs', 1), ('pitch', 0.0), ('roll', 0.0), ('rot0', 0), ('rot1', 0), ('rot2', 0), ('rot3', 0), ('state', 'd9_error'), ('thr0', 0.0), ('thr1', 27.0), ('thr2', 27.0), ('thr3', 27.0), ('time', 84.71), ('watertemp', -2273.69), ('yaw', 0.0)]
[('compass', 0.0), ('cur0', 0.0), ('cur1', 0.0), ('cur2', 0.0), ('datetime', '2019-09-20 11:04:50.901835'), ('depth', 366518.94), ('flw0', 0), ('flw1', 0), ('flw2', 0), ('flw3', 0), ('lipoC2', 6.43), ('lipoC3S3', 7.48), ('mgs', 1), ('pitch', 0.0), ('roll', 0.0), ('rot0', 0), ('rot1', 0), ('rot2', 0), ('rot3', 0), ('state', 'd9_error'), ('thr0', 0.0), ('thr1', 27.0), ('thr2', 27.0), ('thr3', 27.0), ('time', 84.71), ('watertemp', -2273.69), ('yaw', 0.0)]
[('compass', 0.0), ('cur0', 0.0), ('cur1', 0.0), ('cur2', 0.0), ('datetime', '2019-09-20 11:04:51.104011'), ('depth', 366518.94), ('flw0', 0), ('flw1', 0), ('flw2', 0), ('flw3', 0), ('lipoC2', 6.43), ('lipoC3S3', 7.48), ('mgs', 1), ('pitch', 0.0), ('roll', 0.0), ('rot0', 0), ('rot1', 0), ('rot2', 0), ('rot3', 0), ('state', 'd9_error'), ('thr0', 0.0), ('thr1', 27.0), ('thr2', 27.0), ('thr3', 27.0), ('time', 84.71), ('watertemp', -2273.69), ('yaw', 0.0)]
[('compass', 0.0), ('cur0', 0.0), ('cur1', 0.0), ('cur2', 0.0), ('datetime', '2019-09-20 11:04:51.306077'), ('depth', 366518.94), ('flw0', 0), ('flw1', 0), ('flw2', 0), ('flw3', 0), ('lipoC2', 6.43), ('lipoC3S3', 7.48), ('mgs', 1), ('pitch', 0.0), ('roll', 0.0), ('rot0', 0), ('rot1', 0), ('rot2', 0), ('rot3', 0), ('state', 'd9_error'), ('thr0', 0.0), ('thr1', 27.0), ('thr2', 27.0), ('thr3', 27.0), ('time', 84.71), ('watertemp', -2273.69), ('yaw', 0.0)]
[('compass', 0.0), ('cur0', 0.0), ('cur1', 0.0), ('cur2', 0.0), ('datetime', '2019-09-20 11:04:51.508212'), ('depth', 366518.94), ('flw0', 0), ('flw1', 0), ('flw2', 0), ('flw3', 0), ('lipoC2', 6.43), ('lipoC3S3', 7.48), ('mgs', 1), ('pitch', 0.0), ('roll', 0.0), ('rot0', 0), ('rot1', 0), ('rot2', 0), ('rot3', 0), ('state', 'd9_error'), ('thr0', 0.0), ('thr1', 27.0), ('thr2', 27.0), ('thr3', 27.0), ('time', 84.71), ('watertemp', -2273.69), ('yaw', 0.0)]
[('compass', 0.0), ('cur0', 0.0), ('cur1', 0.0), ('cur2', 0.0), ('datetime', '2019-09-20 11:04:51.710330'), ('depth', 366518.94), ('flw0', 0), ('flw1', 0), ('flw2', 0), ('flw3', 0), ('lipoC2', 6.43), ('lipoC3S3', 7.48), ('mgs', 1), ('pitch', 0.0), ('roll', 0.0), ('rot0', 0), ('rot1', 0), ('rot2', 0), ('rot3', 0), ('state', 'd9_error'), ('thr0', 0.0), ('thr1', 27.0), ('thr2', 27.0), ('thr3', 27.0), ('time', 84.71), ('watertemp', -2273.69), ('yaw', 0.0)]
[('compass', 0.0), ('cur0', 0.0), ('cur1', 0.0), ('cur2', 0.0), ('datetime', '2019-09-20 11:04:51.912338'), ('depth', 366518.94), ('flw0', 0), ('flw1', 0), ('flw2', 0), ('flw3', 0), ('lipoC2', 6.43), ('lipoC3S3', 7.48), ('mgs', 1), ('pitch', 0.0), ('roll', 0.0), ('rot0', 0), ('rot1', 0), ('rot2', 0), ('rot3', 0), ('state', 'd9_error'), ('thr0', 0.0), ('thr1', 27.0), ('thr2', 27.0), ('thr3', 27.0), ('time', 84.71), ('watertemp', -2273.69), ('yaw', 0.0)]
[('compass', 0.0), ('cur0', 0.0), ('cur1', 0.0), ('cur2', 0.0), ('datetime', '2019-09-20 11:04:52.114316'), ('depth', 366518.94), ('flw0', 0), ('flw1', 0), ('flw2', 0), ('flw3', 0), ('lipoC2', 6.43), ('lipoC3S3', 7.48), ('mgs', 1), ('pitch', 0.0), ('roll', 0.0), ('rot0', 0), ('rot1', 0), ('rot2', 0), ('rot3', 0), ('state', 'd9_error'), ('thr0', 0.0), ('thr1', 27.0), ('thr2', 27.0), ('thr3', 27.0), ('time', 84.71), ('watertemp', -2273.69), ('yaw', 0.0)]
[('compass', 0.0), ('cur0', 0.0), ('cur1', 0.0), ('cur2', 0.0), ('datetime', '2019-09-20 11:04:52.316336'), ('depth', 366518.94), ('flw0', 0), ('flw1', 0), ('flw2', 0), ('flw3', 0), ('lipoC2', 6.52), ('lipoC3S3', 7.58), ('mgs', 1), ('pitch', 0.0), ('roll', 0.0), ('rot0', 0), ('rot1', 0), ('rot2', 0), ('rot3', 0), ('state', 'd9_error'), ('thr0', 0.0), ('thr1', 26.0), ('thr2', 27.0), ('thr3', 27.0), ('time', 1.39), ('watertemp', -2273.69), ('yaw', 0.0)]
[('compass', 0.0), ('cur0', 0.0), ('cur1', 0.0), ('cur2', 0.0), ('datetime', '2019-09-20 11:04:52.518547'), ('depth', 366518.94), ('flw0', 0), ('flw1', 0), ('flw2', 0), ('flw3', 0), ('lipoC2', 6.53), ('lipoC3S3', 7.55), ('mgs', 1), ('pitch', 0.0), ('roll', 0.0), ('rot0', 0), ('rot1', 0), ('rot2', 0), ('rot3', 0), ('state', 'd9_error'), ('thr0', 0.0), ('thr1', 26.0), ('thr2', 26.0), ('thr3', 27.0), ('time', 1.7), ('watertemp', -2273.69), ('yaw', 0.0)]
[('compass', 0.0), ('cur0', 0.0), ('cur1', 0.0), ('cur2', 0.0), ('datetime', '2019-09-20 11:04:52.720534'), ('depth', 366518.94), ('flw0', 0), ('flw1', 0), ('flw2', 0), ('flw3', 0), ('lipoC2', 6.48), ('lipoC3S3', 7.53), ('mgs', 1), ('pitch', 0.0), ('roll', 0.0), ('rot0', 0), ('rot1', 0), ('rot2', 0), ('rot3', 0), ('state', 'd9_error'), ('thr0', 0.0), ('thr1', 27.0), ('thr2', 27.0), ('thr3', 26.0), ('time', 1.86), ('watertemp', -2273.69), ('yaw', 0.0)]
[('compass', 0.0), ('cur0', 0.0), ('cur1', 0.0), ('cur2', 0.0), ('datetime', '2019-09-20 11:04:52.922553'), ('depth', 366518.94), ('flw0', 0), ('flw1', 0), ('flw2', 0), ('flw3', 0), ('lipoC2', 6.48), ('lipoC3S3', 7.53), ('mgs', 1), ('pitch', 0.0), ('roll', 0.0), ('rot0', 0), ('rot1', 0), ('rot2', 0), ('rot3', 0), ('state', 'd9_error'), ('thr0', 0.0), ('thr1', 27.0), ('thr2', 26.0), ('thr3', 26.0), ('time', 2.01), ('watertemp', -2273.69), ('yaw', 0.0)]
[('compass', 0.0), ('cur0', 0.0), ('cur1', 0.0), ('cur2', 0.0), ('datetime', '2019-09-20 11:04:53.124534'), ('depth', 366518.94), ('flw0', 0), ('flw1', 0), ('flw2', 0), ('flw3', 0), ('lipoC2', 6.43), ('lipoC3S3', 7.5), ('mgs', 1), ('pitch', 0.0), ('roll', 0.0), ('rot0', 0), ('rot1', 0), ('rot2', 0), ('rot3', 0), ('state', 'd9_error'), ('thr0', 0.0), ('thr1', 26.0), ('thr2', 27.0), ('thr3', 27.0), ('time', 2.33), ('watertemp', -2273.69), ('yaw', 0.0)]
[('compass', 0.0), ('cur0', 0.0), ('cur1', 0.0), ('cur2', 0.0), ('datetime', '2019-09-20 11:04:53.326736'), ('depth', 366518.94), ('flw0', 0), ('flw1', 0), ('flw2', 0), ('flw3', 0), ('lipoC2', 6.45), ('lipoC3S3', 7.49), ('mgs', 1), ('pitch', 0.0), ('roll', 0.0), ('rot0', 0), ('rot1', 0), ('rot2', 0), ('rot3', 0), ('state', 'd9_error'), ('thr0', 0.0), ('thr1', 27.0), ('thr2', 27.0), ('thr3', 26.0), ('time', 2.48), ('watertemp', -2273.69), ('yaw', 0.0)]
[('compass', 0.0), ('cur0', 0.0), ('cur1', 0.0), ('cur2', 0.0), ('datetime', '2019-09-20 11:04:53.542442'), ('depth', 366518.94), ('flw0', 0), ('flw1', 0), ('flw2', 0), ('flw3', 0), ('lipoC2', 6.43), ('lipoC3S3', 7.49), ('mgs', 1), ('pitch', 0.0), ('roll', 0.0), ('rot0', 0), ('rot1', 0), ('rot2', 0), ('rot3', 0), ('state', 'd9_error'), ('thr0', 0.0), ('thr1', 26.0), ('thr2', 27.0), ('thr3', 26.0), ('time', 2.64), ('watertemp', -2273.69), ('yaw', 0.0)]
[('compass', 0.0), ('cur0', 0.0), ('cur1', 0.0), ('cur2', 0.0), ('datetime', '2019-09-20 11:04:53.744521'), ('depth', 366518.94), ('flw0', 0), ('flw1', 0), ('flw2', 0), ('flw3', 0), ('lipoC2', 6.43), ('lipoC3S3', 7.48), ('mgs', 1), ('pitch', 0.0), ('roll', 0.0), ('rot0', 0), ('rot1', 0), ('rot2', 0), ('rot3', 0), ('state', 'd9_error'), ('thr0', 0.0), ('thr1', 26.0), ('thr2', 27.0), ('thr3', 26.0), ('time', 2.8), ('watertemp', -2273.69), ('yaw', 0.0)]
[('compass', 0.0), ('cur0', 0.0), ('cur1', 0.0), ('cur2', 0.0), ('datetime', '2019-09-20 11:04:53.947001'), ('depth', 366518.94), ('flw0', 0), ('flw1', 0), ('flw2', 0), ('flw3', 0), ('lipoC2', 6.41), ('lipoC3S3', 7.48), ('mgs', 1), ('pitch', 0.0), ('roll', 0.0), ('rot0', 0), ('rot1', 0), ('rot2', 0), ('rot3', 0), ('state', 'd9_error'), ('thr0', 0.0), ('thr1', 26.0), ('thr2', 27.0), ('thr3', 27.0), ('time', 3.11), ('watertemp', -2273.69), ('yaw', 0.0)]
[('compass', 0.0), ('cur0', 0.0), ('cur1', 0.0), ('cur2', 0.0), ('datetime', '2019-09-20 11:04:54.150920'), ('depth', 366518.94), ('flw0', 0), ('flw1', 0), ('flw2', 0), ('flw3', 0), ('lipoC2', 6.42), ('lipoC3S3', 7.48), ('mgs', 1), ('pitch', 0.0), ('roll', 0.0), ('rot0', 0), ('rot1', 0), ('rot2', 0), ('rot3', 0), ('state', 'd9_error'), ('thr0', 0.0), ('thr1', 26.0), ('thr2', 26.0), ('thr3', 27.0), ('time', 3.27), ('watertemp', -2273.69), ('yaw', 0.0)]
[('compass', 0.0), ('cur0', 0.0), ('cur1', 0.0), ('cur2', 0.0), ('datetime', '2019-09-20 11:04:54.353174'), ('depth', 366518.94), ('flw0', 0), ('flw1', 0), ('flw2', 0), ('flw3', 0), ('lipoC2', 6.4), ('lipoC3S3', 7.46), ('mgs', 1), ('pitch', 0.0), ('roll', 0.0), ('rot0', 0), ('rot1', 0), ('rot2', 0), ('rot3', 0), ('state', 'd9_error'), ('thr0', 0.0), ('thr1', 27.0), ('thr2', 27.0), ('thr3', 26.0), ('time', 3.42), ('watertemp', -2273.69), ('yaw', 0.0)]
[('compass', 0.0), ('cur0', 0.0), ('cur1', 0.0), ('cur2', 0.0), ('datetime', '2019-09-20 11:04:54.555612'), ('depth', 366518.94), ('flw0', 0), ('flw1', 0), ('flw2', 0), ('flw3', 0), ('lipoC2', 6.41), ('lipoC3S3', 7.46), ('mgs', 1), ('pitch', 0.0), ('roll', 0.0), ('rot0', 0), ('rot1', 0), ('rot2', 0), ('rot3', 0), ('state', 'd9_error'), ('thr0', 0.0), ('thr1', 26.0), ('thr2', 26.0), ('thr3', 27.0), ('time', 3.74), ('watertemp', -2273.69), ('yaw', 0.0)]
[('compass', 0.0), ('cur0', 0.0), ('cur1', 0.0), ('cur2', 0.0), ('datetime', '2019-09-20 11:04:54.757870'), ('depth', 366518.94), ('flw0', 0), ('flw1', 0), ('flw2', 0), ('flw3', 0), ('lipoC2', 6.43), ('lipoC3S3', 7.48), ('mgs', 1), ('pitch', 0.0), ('roll', 0.0), ('rot0', 0), ('rot1', 0), ('rot2', 0), ('rot3', 0), ('state', 'd9_error'), ('thr0', 0.0), ('thr1', 26.0), ('thr2', 27.0), ('thr3', 27.0), ('time', 3.89), ('watertemp', -2273.69), ('yaw', 0.0)]
[('compass', 0.0), ('cur0', 0.0), ('cur1', 0.0), ('cur2', 0.0), ('datetime', '2019-09-20 11:04:54.960019'), ('depth', 366518.94), ('flw0', 0), ('flw1', 0), ('flw2', 0), ('flw3', 0), ('lipoC2', 6.4), ('lipoC3S3', 7.46), ('mgs', 1), ('pitch', 0.0), ('roll', 0.0), ('rot0', 0), ('rot1', 0), ('rot2', 0), ('rot3', 0), ('state', 'd9_error'), ('thr0', 0.0), ('thr1', 26.0), ('thr2', 27.0), ('thr3', 27.0), ('time', 4.05), ('watertemp', -2273.69), ('yaw', 0.0)]
[('compass', 0.0), ('cur0', 0.0), ('cur1', 0.0), ('cur2', 0.0), ('datetime', '2019-09-20 11:04:55.162261'), ('depth', 366518.94), ('flw0', 0), ('flw1', 0), ('flw2', 0), ('flw3', 0), ('lipoC2', 6.4), ('lipoC3S3', 7.46), ('mgs', 1), ('pitch', 0.0), ('roll', 0.0), ('rot0', 0), ('rot1', 0), ('rot2', 0), ('rot3', 0), ('state', 'd9_error'), ('thr0', 0.0), ('thr1', 27.0), ('thr2', 26.0), ('thr3', 26.0), ('time', 4.36), ('watertemp', -2273.69), ('yaw', 0.0)]
[('compass', 0.0), ('cur0', 0.0), ('cur1', 0.0), ('cur2', 0.0), ('datetime', '2019-09-20 11:04:55.364474'), ('depth', 366518.94), ('flw0', 0), ('flw1', 0), ('flw2', 0), ('flw3', 0), ('lipoC2', 6.39), ('lipoC3S3', 7.45), ('mgs', 1), ('pitch', 0.0), ('roll', 0.0), ('rot0', 0), ('rot1', 0), ('rot2', 0), ('rot3', 0), ('state', 'd9_error'), ('thr0', 0.0), ('thr1', 27.0), ('thr2', 27.0), ('thr3', 26.0), ('time', 4.52), ('watertemp', -2273.69), ('yaw', 0.0)]
[('compass', 0.0), ('cur0', 0.0), ('cur1', 0.0), ('cur2', 0.0), ('datetime', '2019-09-20 11:04:55.566669'), ('depth', 366518.94), ('flw0', 0), ('flw1', 0), ('flw2', 0), ('flw3', 0), ('lipoC2', 6.4), ('lipoC3S3', 7.45), ('mgs', 1), ('pitch', 0.0), ('roll', 0.0), ('rot0', 0), ('rot1', 0), ('rot2', 0), ('rot3', 0), ('state', 'd9_error'), ('thr0', 0.0), ('thr1', 26.0), ('thr2', 27.0), ('thr3', 27.0), ('time', 4.68), ('watertemp', -2273.69), ('yaw', 0.0)]
[('compass', 0.0), ('cur0', 0.0), ('cur1', 0.0), ('cur2', 0.0), ('datetime', '2019-09-20 11:04:55.768920'), ('depth', 366518.94), ('flw0', 0), ('flw1', 0), ('flw2', 0), ('flw3', 0), ('lipoC2', 6.4), ('lipoC3S3', 7.46), ('mgs', 1), ('pitch', 0.0), ('roll', 0.0), ('rot0', 0), ('rot1', 0), ('rot2', 0), ('rot3', 0), ('state', 'd9_error'), ('thr0', 0.0), ('thr1', 26.0), ('thr2', 27.0), ('thr3', 27.0), ('time', 4.83), ('watertemp', -2273.69), ('yaw', 0.0)]
[('compass', 0.0), ('cur0', 0.0), ('cur1', 0.0), ('cur2', 0.0), ('datetime', '2019-09-20 11:04:55.971357'), ('depth', 366518.94), ('flw0', 0), ('flw1', 0), ('flw2', 0), ('flw3', 0), ('lipoC2', 6.4), ('lipoC3S3', 7.46), ('mgs', 1), ('pitch', 0.0), ('roll', 0.0), ('rot0', 0), ('rot1', 0), ('rot2', 0), ('rot3', 0), ('state', 'd9_error'), ('thr0', 0.0), ('thr1', 26.0), ('thr2', 26.0), ('thr3', 27.0), ('time', 5.14), ('watertemp', -2273.69), ('yaw', 0.0)]
[('compass', 0.0), ('cur0', 0.0), ('cur1', 0.0), ('cur2', 0.0), ('datetime', '2019-09-20 11:04:56.173750'), ('depth', 366518.94), ('flw0', 0), ('flw1', 0), ('flw2', 0), ('flw3', 0), ('lipoC2', 6.4), ('lipoC3S3', 7.46), ('mgs', 1), ('pitch', 0.0), ('roll', 0.0), ('rot0', 0), ('rot1', 0), ('rot2', 0), ('rot3', 0), ('state', 'd9_error'), ('thr0', 0.0), ('thr1', 27.0), ('thr2', 27.0), ('thr3', 26.0), ('time', 5.3), ('watertemp', -2273.69), ('yaw', 0.0)]
[('compass', 0.0), ('cur0', 0.0), ('cur1', 0.0), ('cur2', 0.0), ('datetime', '2019-09-20 11:04:56.376013'), ('depth', 366518.94), ('flw0', 0), ('flw1', 0), ('flw2', 0), ('flw3', 0), ('lipoC2', 6.4), ('lipoC3S3', 7.45), ('mgs', 1), ('pitch', 0.0), ('roll', 0.0), ('rot0', 0), ('rot1', 0), ('rot2', 0), ('rot3', 0), ('state', 'd9_error'), ('thr0', 0.0), ('thr1', 26.0), ('thr2', 27.0), ('thr3', 27.0), ('time', 5.46), ('watertemp', -2273.69), ('yaw', 0.0)]
[('compass', 0.0), ('cur0', 0.0), ('cur1', 0.0), ('cur2', 0.0), ('datetime', '2019-09-20 11:04:56.578289'), ('depth', 366518.94), ('flw0', 0), ('flw1', 0), ('flw2', 0), ('flw3', 0), ('lipoC2', 6.42), ('lipoC3S3', 7.46), ('mgs', 1), ('pitch', 0.0), ('roll', 0.0), ('rot0', 0), ('rot1', 0), ('rot2', 0), ('rot3', 0), ('state', 'd9_error'), ('thr0', 0.0), ('thr1', 27.0), ('thr2', 27.0), ('thr3', 26.0), ('time', 5.77), ('watertemp', -2273.69), ('yaw', 0.0)]
[('compass', 0.0), ('cur0', 0.0), ('cur1', 0.0), ('cur2', 0.0), ('datetime', '2019-09-20 11:04:56.780592'), ('depth', 366518.94), ('flw0', 0), ('flw1', 0), ('flw2', 0), ('flw3', 0), ('lipoC2', 6.4), ('lipoC3S3', 7.45), ('mgs', 1), ('pitch', 0.0), ('roll', 0.0), ('rot0', 0), ('rot1', 0), ('rot2', 0), ('rot3', 0), ('state', 'd9_error'), ('thr0', 0.0), ('thr1', 26.0), ('thr2', 27.0), ('thr3', 26.0), ('time', 5.93), ('watertemp', -2273.69), ('yaw', 0.0)]
[('compass', 0.0), ('cur0', 0.0), ('cur1', 0.0), ('cur2', 0.0), ('datetime', '2019-09-20 11:04:56.982728'), ('depth', 366518.94), ('flw0', 0), ('flw1', 0), ('flw2', 0), ('flw3', 0), ('lipoC2', 6.4), ('lipoC3S3', 7.45), ('mgs', 1), ('pitch', 0.0), ('roll', 0.0), ('rot0', 0), ('rot1', 0), ('rot2', 0), ('rot3', 0), ('state', 'd9_error'), ('thr0', 0.0), ('thr1', 27.0), ('thr2', 26.0), ('thr3', 26.0), ('time', 6.08), ('watertemp', -2273.69), ('yaw', 0.0)]
[('compass', 0.0), ('cur0', 0.0), ('cur1', 0.0), ('cur2', 0.0), ('datetime', '2019-09-20 11:04:57.184870'), ('depth', 366518.94), ('flw0', 0), ('flw1', 0), ('flw2', 0), ('flw3', 0), ('lipoC2', 6.4), ('lipoC3S3', 7.45), ('mgs', 1), ('pitch', 0.0), ('roll', 0.0), ('rot0', 0), ('rot1', 0), ('rot2', 0), ('rot3', 0), ('state', 'd9_error'), ('thr0', 0.0), ('thr1', 27.0), ('thr2', 27.0), ('thr3', 26.0), ('time', 6.24), ('watertemp', -2273.69), ('yaw', 0.0)]
[('compass', 0.0), ('cur0', 0.0), ('cur1', 0.0), ('cur2', 0.0), ('datetime', '2019-09-20 11:04:57.387202'), ('depth', 366518.94), ('flw0', 0), ('flw1', 0), ('flw2', 0), ('flw3', 0), ('lipoC2', 6.39), ('lipoC3S3', 7.45), ('mgs', 1), ('pitch', 0.0), ('roll', 0.0), ('rot0', 0), ('rot1', 0), ('rot2', 0), ('rot3', 0), ('state', 'd9_error'), ('thr0', 0.0), ('thr1', 27.0), ('thr2', 26.0), ('thr3', 26.0), ('time', 6.55), ('watertemp', -2273.69), ('yaw', 0.0)]
[('compass', 0.0), ('cur0', 0.0), ('cur1', 0.0), ('cur2', 0.0), ('datetime', '2019-09-20 11:04:57.589440'), ('depth', 366518.94), ('flw0', 0), ('flw1', 0), ('flw2', 0), ('flw3', 0), ('lipoC2', 6.41), ('lipoC3S3', 7.46), ('mgs', 1), ('pitch', 0.0), ('roll', 0.0), ('rot0', 0), ('rot1', 0), ('rot2', 0), ('rot3', 0), ('state', 'd9_error'), ('thr0', 0.0), ('thr1', 26.0), ('thr2', 27.0), ('thr3', 27.0), ('time', 6.71), ('watertemp', -2273.69), ('yaw', 0.0)]
[('compass', 0.0), ('cur0', 0.0), ('cur1', 0.0), ('cur2', 0.0), ('datetime', '2019-09-20 11:04:57.793386'), ('depth', 366518.94), ('flw0', 0), ('flw1', 0), ('flw2', 0), ('flw3', 0), ('lipoC2', 6.4), ('lipoC3S3', 7.46), ('mgs', 1), ('pitch', 0.0), ('roll', 0.0), ('rot0', 0), ('rot1', 0), ('rot2', 0), ('rot3', 0), ('state', 'd9_error'), ('thr0', 0.0), ('thr1', 27.0), ('thr2', 27.0), ('thr3', 26.0), ('time', 6.87), ('watertemp', -2273.69), ('yaw', 0.0)]
[('compass', 0.0), ('cur0', 0.0), ('cur1', 0.0), ('cur2', 0.0), ('datetime', '2019-09-20 11:04:57.995612'), ('depth', 366518.94), ('flw0', 0), ('flw1', 0), ('flw2', 0), ('flw3', 0), ('lipoC2', 6.39), ('lipoC3S3', 7.46), ('mgs', 1), ('pitch', 0.0), ('roll', 0.0), ('rot0', 0), ('rot1', 0), ('rot2', 0), ('rot3', 0), ('state', 'd9_error'), ('thr0', 0.0), ('thr1', 26.0), ('thr2', 27.0), ('thr3', 26.0), ('time', 7.18), ('watertemp', -2273.69), ('yaw', 0.0)]
[('compass', 0.0), ('cur0', 0.0), ('cur1', 0.0), ('cur2', 0.0), ('datetime', '2019-09-20 11:04:58.197735'), ('depth', 366518.94), ('flw0', 0), ('flw1', 0), ('flw2', 0), ('flw3', 0), ('lipoC2', 6.4), ('lipoC3S3', 7.46), ('mgs', 1), ('pitch', 0.0), ('roll', 0.0), ('rot0', 0), ('rot1', 0), ('rot2', 0), ('rot3', 0), ('state', 'd9_error'), ('thr0', 0.0), ('thr1', 27.0), ('thr2', 26.0), ('thr3', 26.0), ('time', 7.34), ('watertemp', -2273.69), ('yaw', 0.0)]
[('compass', 0.0), ('cur0', 0.0), ('cur1', 0.0), ('cur2', 0.0), ('datetime', '2019-09-20 11:04:58.399810'), ('depth', 366518.94), ('flw0', 0), ('flw1', 0), ('flw2', 0), ('flw3', 0), ('lipoC2', 6.39), ('lipoC3S3', 7.45), ('mgs', 1), ('pitch', 0.0), ('roll', 0.0), ('rot0', 0), ('rot1', 0), ('rot2', 0), ('rot3', 0), ('state', 'd9_error'), ('thr0', 0.0), ('thr1', 26.0), ('thr2', 27.0), ('thr3', 26.0), ('time', 7.49), ('watertemp', -2273.69), ('yaw', 0.0)]
[('compass', 0.0), ('cur0', 0.0), ('cur1', 0.0), ('cur2', 0.0), ('datetime', '2019-09-20 11:04:58.601958'), ('depth', 366518.94), ('flw0', 0), ('flw1', 0), ('flw2', 0), ('flw3', 0), ('lipoC2', 6.4), ('lipoC3S3', 7.45), ('mgs', 1), ('pitch', 0.0), ('roll', 0.0), ('rot0', 0), ('rot1', 0), ('rot2', 0), ('rot3', 0), ('state', 'd9_error'), ('thr0', 0.0), ('thr1', 27.0), ('thr2', 26.0), ('thr3', 26.0), ('time', 7.65), ('watertemp', -2273.69), ('yaw', 0.0)]
[('compass', 0.0), ('cur0', 0.0), ('cur1', 0.0), ('cur2', 0.0), ('datetime', '2019-09-20 11:04:58.804424'), ('depth', 366518.94), ('flw0', 0), ('flw1', 0), ('flw2', 0), ('flw3', 0), ('lipoC2', 6.38), ('lipoC3S3', 7.45), ('mgs', 1), ('pitch', 0.0), ('roll', 0.0), ('rot0', 0), ('rot1', 0), ('rot2', 0), ('rot3', 0), ('state', 'd9_error'), ('thr0', 0.0), ('thr1', 26.0), ('thr2', 27.0), ('thr3', 26.0), ('time', 7.96), ('watertemp', -2273.69), ('yaw', 0.0)]
[('compass', 0.0), ('cur0', 0.0), ('cur1', 0.0), ('cur2', 0.0), ('datetime', '2019-09-20 11:04:59.006654'), ('depth', 366518.94), ('flw0', 0), ('flw1', 0), ('flw2', 0), ('flw3', 0), ('lipoC2', 6.39), ('lipoC3S3', 7.45), ('mgs', 1), ('pitch', 0.0), ('roll', 0.0), ('rot0', 0), ('rot1', 0), ('rot2', 0), ('rot3', 0), ('state', 'd9_error'), ('thr0', 0.0), ('thr1', 27.0), ('thr2', 27.0), ('thr3', 26.0), ('time', 8.12), ('watertemp', -2273.69), ('yaw', 0.0)]
[('compass', 0.0), ('cur0', 0.0), ('cur1', 0.0), ('cur2', 0.0), ('datetime', '2019-09-20 11:04:59.208832'), ('depth', 366518.94), ('flw0', 0), ('flw1', 0), ('flw2', 0), ('flw3', 0), ('lipoC2', 6.41), ('lipoC3S3', 7.46), ('mgs', 1), ('pitch', 0.0), ('roll', 0.0), ('rot0', 0), ('rot1', 0), ('rot2', 0), ('rot3', 0), ('state', 'd9_error'), ('thr0', 0.0), ('thr1', 26.0), ('thr2', 26.0), ('thr3', 27.0), ('time', 8.28), ('watertemp', -2273.69), ('yaw', 0.0)]
[('compass', 0.0), ('cur0', 0.0), ('cur1', 0.0), ('cur2', 0.0), ('datetime', '2019-09-20 11:04:59.411169'), ('depth', 366518.94), ('flw0', 0), ('flw1', 0), ('flw2', 0), ('flw3', 0), ('lipoC2', 6.37), ('lipoC3S3', 7.44), ('mgs', 1), ('pitch', 0.0), ('roll', 0.0), ('rot0', 0), ('rot1', 0), ('rot2', 0), ('rot3', 0), ('state', 'd9_error'), ('thr0', 0.0), ('thr1', 27.0), ('thr2', 27.0), ('thr3', 26.0), ('time', 8.59), ('watertemp', -2273.69), ('yaw', 0.0)]
