[('compass', 0.0), ('cur0', 0.0), ('cur1', 0.0), ('cur2', 0.0), ('datetime', '2019-09-20 11:05:44.653403'), ('depth', 366518.94), ('flw0', 0), ('flw1', 0), ('flw2', 0), ('flw3', 0), ('lipoC2', 6.34), ('lipoC3S3', 7.4), ('mgs', 1), ('pitch', 0.0), ('roll', 0.0), ('rot0', 0), ('rot1', 0), ('rot2', 3), ('rot3', 4), ('state', 'd9_error'), ('thr0', 0.0), ('thr1', 26.0), ('thr2', 26.0), ('thr3', 26.0), ('time', 15.64), ('watertemp', -2273.69), ('yaw', 0.0)]
[('compass', 0.0), ('cur0', 0.0), ('cur1', 0.0), ('cur2', 0.0), ('datetime', '2019-09-20 11:05:44.858963'), ('depth', 366518.94), ('flw0', 0), ('flw1', 0), ('flw2', 0), ('flw3', 0), ('lipoC2', 6.34), ('lipoC3S3', 7.4), ('mgs', 1), ('pitch', 0.0), ('roll', 0.0), ('rot0', 0), ('rot1', 0), ('rot2', 3), ('rot3', 4), ('state', 'd9_error'), ('thr0', 0.0), ('thr1', 26.0), ('thr2', 26.0), ('thr3', 26.0), ('time', 15.64), ('watertemp', -2273.69), ('yaw', 0.0)]
[('compass', 0.0), ('cur0', 0.0), ('cur1', 0.0), ('cur2', 0.0), ('datetime', '2019-09-20 11:05:45.061136'), ('depth', 366518.94), ('flw0', 0), ('flw1', 0), ('flw2', 0), ('flw3', 0), ('lipoC2', 6.34), ('lipoC3S3', 7.4), ('mgs', 1), ('pitch', 0.0), ('roll', 0.0), ('rot0', 0), ('rot1', 0), ('rot2', 3), ('rot3', 4), ('state', 'd9_error'), ('thr0', 0.0), ('thr1', 26.0), ('thr2', 26.0), ('thr3', 26.0), ('time', 15.64), ('watertemp', -2273.69), ('yaw', 0.0)]
[('compass', 0.0), ('cur0', 0.0), ('cur1', 0.0), ('cur2', 0.0), ('datetime', '2019-09-20 11:05:45.263370'), ('depth', 366518.94), ('flw0', 0), ('flw1', 0), ('flw2', 0), ('flw3', 0), ('lipoC2', 6.34), ('lipoC3S3', 7.4), ('mgs', 1), ('pitch', 0.0), ('roll', 0.0), ('rot0', 0), ('rot1', 0), ('rot2', 3), ('rot3', 4), ('state', 'd9_error'), ('thr0', 0.0), ('thr1', 26.0), ('thr2', 26.0), ('thr3', 26.0), ('time', 15.64), ('watertemp', -2273.69), ('yaw', 0.0)]
[('compass', 0.0), ('cur0', 0.0), ('cur1', 0.0), ('cur2', 0.0), ('datetime', '2019-09-20 11:05:45.465500'), ('depth', 366518.94), ('flw0', 0), ('flw1', 0), ('flw2', 0), ('flw3', 0), ('lipoC2', 6.34), ('lipoC3S3', 7.4), ('mgs', 1), ('pitch', 0.0), ('roll', 0.0), ('rot0', 0), ('rot1', 0), ('rot2', 3), ('rot3', 4), ('state', 'd9_error'), ('thr0', 0.0), ('thr1', 26.0), ('thr2', 26.0), ('thr3', 26.0), ('time', 15.64), ('watertemp', -2273.69), ('yaw', 0.0)]
[('compass', 0.0), ('cur0', 0.0), ('cur1', 0.0), ('cur2', 0.0), ('datetime', '2019-09-20 11:05:45.668596'), ('depth', 366518.94), ('flw0', 0), ('flw1', 0), ('flw2', 0), ('flw3', 0), ('lipoC2', 6.34), ('lipoC3S3', 7.4), ('mgs', 1), ('pitch', 0.0), ('roll', 0.0), ('rot0', 0), ('rot1', 0), ('rot2', 3), ('rot3', 4), ('state', 'd9_error'), ('thr0', 0.0), ('thr1', 26.0), ('thr2', 26.0), ('thr3', 26.0), ('time', 15.64), ('watertemp', -2273.69), ('yaw', 0.0)]
[('compass', 0.0), ('cur0', 0.0), ('cur1', 0.0), ('cur2', 0.0), ('datetime', '2019-09-20 11:05:45.870619'), ('depth', 366518.94), ('flw0', 0), ('flw1', 0), ('flw2', 0), ('flw3', 0), ('lipoC2', 6.34), ('lipoC3S3', 7.4), ('mgs', 1), ('pitch', 0.0), ('roll', 0.0), ('rot0', 0), ('rot1', 0), ('rot2', 3), ('rot3', 4), ('state', 'd9_error'), ('thr0', 0.0), ('thr1', 26.0), ('thr2', 26.0), ('thr3', 26.0), ('time', 15.64), ('watertemp', -2273.69), ('yaw', 0.0)]
[('compass', 0.0), ('cur0', 0.0), ('cur1', 0.0), ('cur2', 0.0), ('datetime', '2019-09-20 11:05:46.072968'), ('depth', 366518.94), ('flw0', 0), ('flw1', 0), ('flw2', 0), ('flw3', 0), ('lipoC2', 6.34), ('lipoC3S3', 7.4), ('mgs', 1), ('pitch', 0.0), ('roll', 0.0), ('rot0', 0), ('rot1', 0), ('rot2', 3), ('rot3', 4), ('state', 'd9_error'), ('thr0', 0.0), ('thr1', 26.0), ('thr2', 26.0), ('thr3', 26.0), ('time', 15.64), ('watertemp', -2273.69), ('yaw', 0.0)]
[('compass', 0.0), ('cur0', 0.0), ('cur1', 0.0), ('cur2', 0.0), ('datetime', '2019-09-20 11:05:46.275151'), ('depth', 366518.94), ('flw0', 0), ('flw1', 0), ('flw2', 0), ('flw3', 0), ('lipoC2', 6.34), ('lipoC3S3', 7.4), ('mgs', 1), ('pitch', 0.0), ('roll', 0.0), ('rot0', 0), ('rot1', 0), ('rot2', 3), ('rot3', 4), ('state', 'd9_error'), ('thr0', 0.0), ('thr1', 26.0), ('thr2', 26.0), ('thr3', 26.0), ('time', 15.64), ('watertemp', -2273.69), ('yaw', 0.0)]
[('compass', 0.0), ('cur0', 0.0), ('cur1', 0.0), ('cur2', 0.0), ('datetime', '2019-09-20 11:05:46.477557'), ('depth', 366518.94), ('flw0', 0), ('flw1', 0), ('flw2', 0), ('flw3', 0), ('lipoC2', 6.47), ('lipoC3S3', 7.49), ('mgs', 1), ('pitch', 0.0), ('roll', 0.0), ('rot0', 0), ('rot1', 0), ('rot2', 0), ('rot3', 0), ('state', 'd9_error'), ('thr0', 0.0), ('thr1', 26.0), ('thr2', 27.0), ('thr3', 27.0), ('time', 1.39), ('watertemp', -2273.69), ('yaw', 0.0)]
[('compass', 0.0), ('cur0', 0.0), ('cur1', 0.0), ('cur2', 0.0), ('datetime', '2019-09-20 11:05:46.679976'), ('depth', 366518.94), ('flw0', 0), ('flw1', 0), ('flw2', 0), ('flw3', 0), ('lipoC2', 6.42), ('lipoC3S3', 7.45), ('mgs', 1), ('pitch', 0.0), ('roll', 0.0), ('rot0', 0), ('rot1', 0), ('rot2', 0), ('rot3', 0), ('state', 'd9_error'), ('thr0', 0.0), ('thr1', 26.0), ('thr2', 26.0), ('thr3', 27.0), ('time', 1.7), ('watertemp', -2273.69), ('yaw', 0.0)]
[('compass', 0.0), ('cur0', 0.0), ('cur1', 0.0), ('cur2', 0.0), ('datetime', '2019-09-20 11:05:46.882133'), ('depth', 366518.94), ('flw0', 0), ('flw1', 0), ('flw2', 0), ('flw3', 0), ('lipoC2', 6.43), ('lipoC3S3', 7.45), ('mgs', 1), ('pitch', 0.0), ('roll', 0.0), ('rot0', 0), ('rot1', 0), ('rot2', 0), ('rot3', 0), ('state', 'd9_error'), ('thr0', 0.0), ('thr1', 26.0), ('thr2', 27.0), ('thr3', 27.0), ('time', 1.86), ('watertemp', -2273.69), ('yaw', 0.0)]
[('compass', 0.0), ('cur0', 0.0), ('cur1', 0.0), ('cur2', 0.0), ('datetime', '2019-09-20 11:05:47.084188'), ('depth', 366518.94), ('flw0', 0), ('flw1', 0), ('flw2', 0), ('flw3', 0), ('lipoC2', 6.38), ('lipoC3S3', 7.42), ('mgs', 1), ('pitch', 0.0), ('roll', 0.0), ('rot0', 0), ('rot1', 0), ('rot2', 0), ('rot3', 0), ('state', 'd9_error'), ('thr0', 0.0), ('thr1', 26.0), ('thr2', 27.0), ('thr3', 27.0), ('time', 2.01), ('watertemp', -2273.69), ('yaw', 0.0)]
[('compass', 0.0), ('cur0', 0.0), ('cur1', 0.0), ('cur2', 0.0), ('datetime', '2019-09-20 11:05:47.286174'), ('depth', 366518.94), ('flw0', 0), ('flw1', 0), ('flw2', 0), ('flw3', 0), ('lipoC2', 6.36), ('lipoC3S3', 7.4), ('mgs', 1), ('pitch', 0.0), ('roll', 0.0), ('rot0', 0), ('rot1', 0), ('rot2', 0), ('rot3', 0), ('state', 'd9_error'), ('thr0', 0.0), ('thr1', 27.0), ('thr2', 26.0), ('thr3', 27.0), ('time', 2.33), ('watertemp', -2273.69), ('yaw', 0.0)]
[('compass', 0.0), ('cur0', 0.0), ('cur1', 0.0), ('cur2', 0.0), ('datetime', '2019-09-20 11:05:47.488225'), ('depth', 366518.94), ('flw0', 0), ('flw1', 0), ('flw2', 0), ('flw3', 0), ('lipoC2', 6.33), ('lipoC3S3', 7.37), ('mgs', 1), ('pitch', 0.0), ('roll', 0.0), ('rot0', 0), ('rot1', 0), ('rot2', 0), ('rot3', 0), ('state', 'd9_error'), ('thr0', 0.0), ('thr1', 27.0), ('thr2', 27.0), ('thr3', 26.0), ('time', 2.48), ('watertemp', -2273.69), ('yaw', 0.0)]
[('compass', 0.0), ('cur0', 0.0), ('cur1', 0.0), ('cur2', 0.0), ('datetime', '2019-09-20 11:05:47.701164'), ('depth', 366518.94), ('flw0', 0), ('flw1', 0), ('flw2', 0), ('flw3', 0), ('lipoC2', 6.28), ('lipoC3S3', 7.34), ('mgs', 1), ('pitch', 0.0), ('roll', 0.0), ('rot0', 0), ('rot1', 0), ('rot2', 0), ('rot3', 0), ('state', 'd9_error'), ('thr0', 0.0), ('thr1', 27.0), ('thr2', 26.0), ('thr3', 27.0), ('time', 2.64), ('watertemp', -2273.69), ('yaw', 0.0)]
[('compass', 0.0), ('cur0', 0.0), ('cur1', 0.0), ('cur2', 0.0), ('datetime', '2019-09-20 11:05:47.903393'), ('depth', 366518.94), ('flw0', 0), ('flw1', 0), ('flw2', 0), ('flw3', 0), ('lipoC2', 6.28), ('lipoC3S3', 7.3), ('mgs', 1), ('pitch', 0.0), ('roll', 0.0), ('rot0', 0), ('rot1', 0), ('rot2', 0), ('rot3', 0), ('state', 'd9_error'), ('thr0', 0.0), ('thr1', 27.0), ('thr2', 26.0), ('thr3', 26.0), ('time', 2.95), ('watertemp', -2273.69), ('yaw', 0.0)]
[('compass', 0.0), ('cur0', 0.0), ('cur1', 0.0), ('cur2', 0.0), ('datetime', '2019-09-20 11:05:48.108372'), ('depth', 366518.94), ('flw0', 0), ('flw1', 0), ('flw2', 0), ('flw3', 0), ('lipoC2', 6.25), ('lipoC3S3', 7.29), ('mgs', 1), ('pitch', 0.0), ('roll', 0.0), ('rot0', 0), ('rot1', 0), ('rot2', 0), ('rot3', 0), ('state', 'd9_error'), ('thr0', 0.0), ('thr1', 27.0), ('thr2', 27.0), ('thr3', 26.0), ('time', 3.11), ('watertemp', -2273.69), ('yaw', 0.0)]
[('compass', 0.0), ('cur0', 0.0), ('cur1', 0.0), ('cur2', 0.0), ('datetime', '2019-09-20 11:05:48.312538'), ('depth', 366518.94), ('flw0', 0), ('flw1', 0), ('flw2', 0), ('flw3', 0), ('lipoC2', 6.26), ('lipoC3S3', 7.29), ('mgs', 1), ('pitch', 0.0), ('roll', 0.0), ('rot0', 0), ('rot1', 0), ('rot2', 0), ('rot3', 0), ('state', 'd9_error'), ('thr0', 0.0), ('thr1', 27.0), ('thr2', 27.0), ('thr3', 26.0), ('time', 3.27), ('watertemp', -2273.69), ('yaw', 0.0)]
[('compass', 0.0), ('cur0', 0.0), ('cur1', 0.0), ('cur2', 0.0), ('datetime', '2019-09-20 11:05:48.514600'), ('depth', 366518.94), ('flw0', 0), ('flw1', 0), ('flw2', 0), ('flw3', 0), ('lipoC2', 6.24), ('lipoC3S3', 7.28), ('mgs', 1), ('pitch', 0.0), ('roll', 0.0), ('rot0', 0), ('rot1', 0), ('rot2', 0), ('rot3', 0), ('state', 'd9_error'), ('thr0', 0.0), ('thr1', 27.0), ('thr2', 26.0), ('thr3', 27.0), ('time', 3.42), ('watertemp', -2273.69), ('yaw', 0.0)]
[('compass', 0.0), ('cur0', 0.0), ('cur1', 0.0), ('cur2', 0.0), ('datetime', '2019-09-20 11:05:48.717101'), ('depth', 366518.94), ('flw0', 0), ('flw1', 0), ('flw2', 0), ('flw3', 0), ('lipoC2', 6.24), ('lipoC3S3', 7.26), ('mgs', 1), ('pitch', 0.0), ('roll', 0.0), ('rot0', 0), ('rot1', 0), ('rot2', 0), ('rot3', 0), ('state', 'd9_error'), ('thr0', 0.0), ('thr1', 26.0), ('thr2', 26.0), ('thr3', 27.0), ('time', 3.74), ('watertemp', -2273.69), ('yaw', 0.0)]
[('compass', 0.0), ('cur0', 0.0), ('cur1', 0.0), ('cur2', 0.0), ('datetime', '2019-09-20 11:05:48.919014'), ('depth', 366518.94), ('flw0', 0), ('flw1', 0), ('flw2', 0), ('flw3', 0), ('lipoC2', 6.23), ('lipoC3S3', 7.26), ('mgs', 1), ('pitch', 0.0), ('roll', 0.0), ('rot0', 0), ('rot1', 0), ('rot2', 0), ('rot3', 0), ('state', 'd9_error'), ('thr0', 0.0), ('thr1', 26.0), ('thr2', 27.0), ('thr3', 26.0), ('time', 3.89), ('watertemp', -2273.69), ('yaw', 0.0)]
[('compass', 0.0), ('cur0', 0.0), ('cur1', 0.0), ('cur2', 0.0), ('datetime', '2019-09-20 11:05:49.121041'), ('depth', 366518.94), ('flw0', 0), ('flw1', 0), ('flw2', 0), ('flw3', 0), ('lipoC2', 6.23), ('lipoC3S3', 7.25), ('mgs', 1), ('pitch', 0.0), ('roll', 0.0), ('rot0', 0), ('rot1', 0), ('rot2', 0), ('rot3', 0), ('state', 'd9_error'), ('thr0', 0.0), ('thr1', 26.0), ('thr2', 26.0), ('thr3', 27.0), ('time', 4.05), ('watertemp', -2273.69), ('yaw', 0.0)]
[('compass', 0.0), ('cur0', 0.0), ('cur1', 0.0), ('cur2', 0.0), ('datetime', '2019-09-20 11:05:49.323178'), ('depth', 366518.94), ('flw0', 0), ('flw1', 0), ('flw2', 0), ('flw3', 0), ('lipoC2', 6.23), ('lipoC3S3', 7.25), ('mgs', 1), ('pitch', 0.0), ('roll', 0.0), ('rot0', 0), ('rot1', 0), ('rot2', 0), ('rot3', 0), ('state', 'd9_error'), ('thr0', 0.0), ('thr1', 26.0), ('thr2', 27.0), ('thr3', 27.0), ('time', 4.36), ('watertemp', -2273.69), ('yaw', 0.0)]
[('compass', 0.0), ('cur0', 0.0), ('cur1', 0.0), ('cur2', 0.0), ('datetime', '2019-09-20 11:05:49.525323'), ('depth', 366518.94), ('flw0', 0), ('flw1', 0), ('flw2', 0), ('flw3', 0), ('lipoC2', 6.21), ('lipoC3S3', 7.24), ('mgs', 1), ('pitch', 0.0), ('roll', 0.0), ('rot0', 0), ('rot1', 0), ('rot2', 0), ('rot3', 0), ('state', 'd9_error'), ('thr0', 0.0), ('thr1', 26.0), ('thr2', 27.0), ('thr3', 26.0), ('time', 4.52), ('watertemp', -2273.69), ('yaw', 0.0)]
[('compass', 0.0), ('cur0', 0.0), ('cur1', 0.0), ('cur2', 0.0), ('datetime', '2019-09-20 11:05:49.727356'), ('depth', 366518.94), ('flw0', 0), ('flw1', 0), ('flw2', 0), ('flw3', 0), ('lipoC2', 6.23), ('lipoC3S3', 7.25), ('mgs', 1), ('pitch', 0.0), ('roll', 0.0), ('rot0', 0), ('rot1', 0), ('rot2', 0), ('rot3', 0), ('state', 'd9_error'), ('thr0', 0.0), ('thr1', 27.0), ('thr2', 27.0), ('thr3', 26.0), ('time', 4.68), ('watertemp', -2273.69), ('yaw', 0.0)]
[('compass', 0.0), ('cur0', 0.0), ('cur1', 0.0), ('cur2', 0.0), ('datetime', '2019-09-20 11:05:49.929461'), ('depth', 366518.94), ('flw0', 0), ('flw1', 0), ('flw2', 0), ('flw3', 0), ('lipoC2', 6.25), ('lipoC3S3', 7.26), ('mgs', 1), ('pitch', 0.0), ('roll', 0.0), ('rot0', 0), ('rot1', 0), ('rot2', 0), ('rot3', 0), ('state', 'd9_error'), ('thr0', 0.0), ('thr1', 26.0), ('thr2', 27.0), ('thr3', 27.0), ('time', 4.83), ('watertemp', -2273.69), ('yaw', 0.0)]
[('compass', 0.0), ('cur0', 0.0), ('cur1', 0.0), ('cur2', 0.0), ('datetime', '2019-09-20 11:05:50.132111'), ('depth', 366518.94), ('flw0', 0), ('flw1', 0), ('flw2', 0), ('flw3', 0), ('lipoC2', 6.24), ('lipoC3S3', 7.25), ('mgs', 1), ('pitch', 0.0), ('roll', 0.0), ('rot0', 0), ('rot1', 0), ('rot2', 0), ('rot3', 0), ('state', 'd9_error'), ('thr0', 0.0), ('thr1', 26.0), ('thr2', 27.0), ('thr3', 27.0), ('time', 5.14), ('watertemp', -2273.69), ('yaw', 0.0)]
[('compass', 0.0), ('cur0', 0.0), ('cur1', 0.0), ('cur2', 0.0), ('datetime', '2019-09-20 11:05:50.334162'), ('depth', 366518.94), ('flw0', 0), ('flw1', 0), ('flw2', 0), ('flw3', 0), ('lipoC2', 6.26), ('lipoC3S3', 7.26), ('mgs', 1), ('pitch', 0.0), ('roll', 0.0), ('rot0', 0), ('rot1', 0), ('rot2', 0), ('rot3', 0), ('state', 'd9_error'), ('thr0', 0.0), ('thr1', 27.0), ('thr2', 27.0), ('thr3', 26.0), ('time', 5.3), ('watertemp', -2273.69), ('yaw', 0.0)]
[('compass', 0.0), ('cur0', 0.0), ('cur1', 0.0), ('cur2', 0.0), ('datetime', '2019-09-20 11:05:50.536237'), ('depth', 366518.94), ('flw0', 0), ('flw1', 0), ('flw2', 0), ('flw3', 0), ('lipoC2', 6.24), ('lipoC3S3', 7.25), ('mgs', 1), ('pitch', 0.0), ('roll', 0.0), ('rot0', 0), ('rot1', 0), ('rot2', 0), ('rot3', 0), ('state', 'd9_error'), ('thr0', 0.0), ('thr1', 26.0), ('thr2', 27.0), ('thr3', 26.0), ('time', 5.46), ('watertemp', -2273.69), ('yaw', 0.0)]
[('compass', 0.0), ('cur0', 0.0), ('cur1', 0.0), ('cur2', 0.0), ('datetime', '2019-09-20 11:05:50.738655'), ('depth', 366518.94), ('flw0', 0), ('flw1', 0), ('flw2', 0), ('flw3', 0), ('lipoC2', 6.25), ('lipoC3S3', 7.26), ('mgs', 1), ('pitch', 0.0), ('roll', 0.0), ('rot0', 0), ('rot1', 0), ('rot2', 0), ('rot3', 0), ('state', 'd9_error'), ('thr0', 0.0), ('thr1', 26.0), ('thr2', 26.0), ('thr3', 27.0), ('time', 5.77), ('watertemp', -2273.69), ('yaw', 0.0)]
[('compass', 0.0), ('cur0', 0.0), ('cur1', 0.0), ('cur2', 0.0), ('datetime', '2019-09-20 11:05:50.940896'), ('depth', 366518.94), ('flw0', 0), ('flw1', 0), ('flw2', 0), ('flw3', 0), ('lipoC2', 6.24), ('lipoC3S3', 7.26), ('mgs', 1), ('pitch', 0.0), ('roll', 0.0), ('rot0', 0), ('rot1', 0), ('rot2', 0), ('rot3', 0), ('state', 'd9_error'), ('thr0', 0.0), ('thr1', 26.0), ('thr2', 27.0), ('thr3', 26.0), ('time', 5.93), ('watertemp', -2273.69), ('yaw', 0.0)]
[('compass', 0.0), ('cur0', 0.0), ('cur1', 0.0), ('cur2', 0.0), ('datetime', '2019-09-20 11:05:51.142980'), ('depth', 366518.94), ('flw0', 0), ('flw1', 0), ('flw2', 0), ('flw3', 0), ('lipoC2', 6.23), ('lipoC3S3', 7.25), ('mgs', 1), ('pitch', 0.0), ('roll', 0.0), ('rot0', 0), ('rot1', 0), ('rot2', 0), ('rot3', 0), ('state', 'd9_error'), ('thr0', 0.0), ('thr1', 27.0), ('thr2', 26.0), ('thr3', 27.0), ('time', 6.08), ('watertemp', -2273.69), ('yaw', 0.0)]
[('compass', 0.0), ('cur0', 0.0), ('cur1', 0.0), ('cur2', 0.0), ('datetime', '2019-09-20 11:05:51.344957'), ('depth', 366518.94), ('flw0', 0), ('flw1', 0), ('flw2', 0), ('flw3', 0), ('lipoC2', 6.25), ('lipoC3S3', 7.26), ('mgs', 1), ('pitch', 0.0), ('roll', 0.0), ('rot0', 0), ('rot1', 0), ('rot2', 0), ('rot3', 0), ('state', 'd9_error'), ('thr0', 0.0), ('thr1', 27.0), ('thr2', 26.0), ('thr3', 26.0), ('time', 6.24), ('watertemp', -2273.69), ('yaw', 0.0)]
[('compass', 0.0), ('cur0', 0.0), ('cur1', 0.0), ('cur2', 0.0), ('datetime', '2019-09-20 11:05:51.547098'), ('depth', 366518.94), ('flw0', 0), ('flw1', 0), ('flw2', 0), ('flw3', 0), ('lipoC2', 6.25), ('lipoC3S3', 7.28), ('mgs', 1), ('pitch', 0.0), ('roll', 0.0), ('rot0', 0), ('rot1', 0), ('rot2', 0), ('rot3', 0), ('state', 'd9_error'), ('thr0', 0.0), ('thr1', 26.0), ('thr2', 26.0), ('thr3', 27.0), ('time', 6.55), ('watertemp', -2273.69), ('yaw', 0.0)]
[('compass', 0.0), ('cur0', 0.0), ('cur1', 0.0), ('cur2', 0.0), ('datetime', '2019-09-20 11:05:51.749358'), ('depth', 366518.94), ('flw0', 0), ('flw1', 0), ('flw2', 0), ('flw3', 0), ('lipoC2', 6.27), ('lipoC3S3', 7.28), ('mgs', 1), ('pitch', 0.0), ('roll', 0.0), ('rot0', 0), ('rot1', 0), ('rot2', 0), ('rot3', 0), ('state', 'd9_error'), ('thr0', 0.0), ('thr1', 27.0), ('thr2', 26.0), ('thr3', 27.0), ('time', 6.71), ('watertemp', -2273.69), ('yaw', 0.0)]
[('compass', 0.0), ('cur0', 0.0), ('cur1', 0.0), ('cur2', 0.0), ('datetime', '2019-09-20 11:05:51.953255'), ('depth', 366518.94), ('flw0', 0), ('flw1', 0), ('flw2', 0), ('flw3', 0), ('lipoC2', 6.23), ('lipoC3S3', 7.26), ('mgs', 1), ('pitch', 0.0), ('roll', 0.0), ('rot0', 0), ('rot1', 0), ('rot2', 0), ('rot3', 0), ('state', 'd9_error'), ('thr0', 0.0), ('thr1', 27.0), ('thr2', 27.0), ('thr3', 26.0), ('time', 6.87), ('watertemp', -2273.69), ('yaw', 0.0)]
[('compass', 0.0), ('cur0', 0.0), ('cur1', 0.0), ('cur2', 0.0), ('datetime', '2019-09-20 11:05:52.155426'), ('depth', 366518.94), ('flw0', 0), ('flw1', 0), ('flw2', 0), ('flw3', 0), ('lipoC2', 6.24), ('lipoC3S3', 7.26), ('mgs', 1), ('pitch', 0.0), ('roll', 0.0), ('rot0', 0), ('rot1', 0), ('rot2', 0), ('rot3', 0), ('state', 'd9_error'), ('thr0', 0.0), ('thr1', 27.0), ('thr2', 27.0), ('thr3', 26.0), ('time', 7.18), ('watertemp', -2273.69), ('yaw', 0.0)]
[('compass', 0.0), ('cur0', 0.0), ('cur1', 0.0), ('cur2', 0.0), ('datetime', '2019-09-20 11:05:52.357382'), ('depth', 366518.94), ('flw0', 0), ('flw1', 0), ('flw2', 0), ('flw3', 0), ('lipoC2', 6.24), ('lipoC3S3', 7.26), ('mgs', 1), ('pitch', 0.0), ('roll', 0.0), ('rot0', 0), ('rot1', 0), ('rot2', 0), ('rot3', 0), ('state', 'd9_error'), ('thr0', 0.0), ('thr1', 26.0), ('thr2', 27.0), ('thr3', 27.0), ('time', 7.34), ('watertemp', -2273.69), ('yaw', 0.0)]
[('compass', 0.0), ('cur0', 0.0), ('cur1', 0.0), ('cur2', 0.0), ('datetime', '2019-09-20 11:05:52.559471'), ('depth', 366518.94), ('flw0', 0), ('flw1', 0), ('flw2', 0), ('flw3', 0), ('lipoC2', 6.27), ('lipoC3S3', 7.29), ('mgs', 1), ('pitch', 0.0), ('roll', 0.0), ('rot0', 0), ('rot1', 0), ('rot2', 0), ('rot3', 0), ('state', 'd9_error'), ('thr0', 0.0), ('thr1', 26.0), ('thr2', 27.0), ('thr3', 27.0), ('time', 7.49), ('watertemp', -2273.69), ('yaw', 0.0)]
[('compass', 0.0), ('cur0', 0.0), ('cur1', 0.0), ('cur2', 0.0), ('datetime', '2019-09-20 11:05:52.761610'), ('depth', 366518.94), ('flw0', 0), ('flw1', 0), ('flw2', 0), ('flw3', 0), ('lipoC2', 6.25), ('lipoC3S3', 7.29), ('mgs', 1), ('pitch', 0.0), ('roll', 0.0), ('rot0', 0), ('rot1', 0), ('rot2', 0), ('rot3', 0), ('state', 'd9_error'), ('thr0', 0.0), ('thr1', 27.0), ('thr2', 27.0), ('thr3', 27.0), ('time', 7.81), ('watertemp', -2273.69), ('yaw', 0.0)]
[('compass', 0.0), ('cur0', 0.0), ('cur1', 0.0), ('cur2', 0.0), ('datetime', '2019-09-20 11:05:52.966544'), ('depth', 366518.94), ('flw0', 0), ('flw1', 0), ('flw2', 0), ('flw3', 0), ('lipoC2', 6.26), ('lipoC3S3', 7.28), ('mgs', 1), ('pitch', 0.0), ('roll', 0.0), ('rot0', 0), ('rot1', 0), ('rot2', 0), ('rot3', 0), ('state', 'd9_error'), ('thr0', 0.0), ('thr1', 27.0), ('thr2', 27.0), ('thr3', 26.0), ('time', 7.96), ('watertemp', -2273.69), ('yaw', 0.0)]
[('compass', 0.0), ('cur0', 0.0), ('cur1', 0.0), ('cur2', 0.0), ('datetime', '2019-09-20 11:05:53.168668'), ('depth', 366518.94), ('flw0', 0), ('flw1', 0), ('flw2', 0), ('flw3', 0), ('lipoC2', 6.29), ('lipoC3S3', 7.29), ('mgs', 1), ('pitch', 0.0), ('roll', 0.0), ('rot0', 0), ('rot1', 0), ('rot2', 0), ('rot3', 0), ('state', 'd9_error'), ('thr0', 0.0), ('thr1', 26.0), ('thr2', 27.0), ('thr3', 26.0), ('time', 8.12), ('watertemp', -2273.69), ('yaw', 0.0)]
[('compass', 0.0), ('cur0', 0.0), ('cur1', 0.0), ('cur2', 0.0), ('datetime', '2019-09-20 11:05:53.370776'), ('depth', 366518.94), ('flw0', 0), ('flw1', 0), ('flw2', 0), ('flw3', 0), ('lipoC2', 6.25), ('lipoC3S3', 7.28), ('mgs', 1), ('pitch', 0.0), ('roll', 0.0), ('rot0', 0), ('rot1', 0), ('rot2', 0), ('rot3', 0), ('state', 'd9_error'), ('thr0', 0.0), ('thr1', 26.0), ('thr2', 27.0), ('thr3', 26.0), ('time', 8.27), ('watertemp', -2273.69), ('yaw', 0.0)]
