[('compass', 93.26), ('cur0', 0.0), ('cur1', 0.0), ('cur2', 0.0), ('datetime', '2019-07-18 13:46:15.222155'), ('depth', -0.248), ('flw0', 0), ('flw1', 0), ('flw2', 0), ('flw3', 0), ('lipoC2', 0.0), ('lipoC3S3', 0.0), ('mgs', 0), ('pitch', -1.43), ('roll', 1.25), ('rot0', 234), ('rot1', 230), ('rot2', 0), ('rot3', 0), ('state', 'normal'), ('thr0', 25.0), ('thr1', 26.0), ('thr2', 26.0), ('thr3', 26.0), ('time', 89.18), ('watertemp', 25.2), ('yaw', -1.22)]
[('compass', 93.26), ('cur0', 0.0), ('cur1', 0.0), ('cur2', 0.0), ('datetime', '2019-07-18 13:46:15.440079'), ('depth', -0.248), ('flw0', 0), ('flw1', 0), ('flw2', 0), ('flw3', 0), ('lipoC2', 0.0), ('lipoC3S3', 0.0), ('mgs', 0), ('pitch', -1.43), ('roll', 1.25), ('rot0', 234), ('rot1', 230), ('rot2', 0), ('rot3', 0), ('state', 'normal'), ('thr0', 25.0), ('thr1', 26.0), ('thr2', 26.0), ('thr3', 26.0), ('time', 89.34), ('watertemp', 25.2), ('yaw', -1.22)]
[('compass', 93.26), ('cur0', 0.0), ('cur1', 0.0), ('cur2', 0.0), ('datetime', '2019-07-18 13:46:15.657524'), ('depth', -0.248), ('flw0', 0), ('flw1', 0), ('flw2', 0), ('flw3', 0), ('lipoC2', 0.0), ('lipoC3S3', 0.0), ('mgs', 0), ('pitch', -1.43), ('roll', 1.25), ('rot0', 234), ('rot1', 230), ('rot2', 0), ('rot3', 0), ('state', 'normal'), ('thr0', 25.0), ('thr1', 26.0), ('thr2', 26.0), ('thr3', 26.0), ('time', 89.5), ('watertemp', 25.2), ('yaw', -1.22)]
[('compass', 93.26), ('cur0', 0.0), ('cur1', 0.0), ('cur2', 0.0), ('datetime', '2019-07-18 13:46:15.874870'), ('depth', -0.248), ('flw0', 0), ('flw1', 0), ('flw2', 0), ('flw3', 0), ('lipoC2', 0.0), ('lipoC3S3', 0.0), ('mgs', 0), ('pitch', -1.43), ('roll', 1.25), ('rot0', 234), ('rot1', 230), ('rot2', 0), ('rot3', 0), ('state', 'normal'), ('thr0', 25.0), ('thr1', 26.0), ('thr2', 26.0), ('thr3', 26.0), ('time', 89.66), ('watertemp', 25.2), ('yaw', -1.22)]
[('compass', 93.25), ('cur0', 0.0), ('cur1', 0.0), ('cur2', 0.0), ('datetime', '2019-07-18 13:46:16.093406'), ('depth', -0.238), ('flw0', 0), ('flw1', 0), ('flw2', 0), ('flw3', 0), ('lipoC2', 0.0), ('lipoC3S3', 0.0), ('mgs', 0), ('pitch', -1.5), ('roll', 1.27), ('rot0', 0), ('rot1', 0), ('rot2', 0), ('rot3', 0), ('state', 'normal'), ('thr0', 25.0), ('thr1', 26.0), ('thr2', 26.0), ('thr3', 26.0), ('time', 1.39), ('watertemp', 25.24), ('yaw', 0.0)]
[('compass', 93.25), ('cur0', 0.0), ('cur1', 0.0), ('cur2', 0.0), ('datetime', '2019-07-18 13:46:16.310457'), ('depth', -0.248), ('flw0', 0), ('flw1', 0), ('flw2', 0), ('flw3', 0), ('lipoC2', 0.0), ('lipoC3S3', 0.0), ('mgs', 0), ('pitch', -1.55), ('roll', 1.28), ('rot0', 0), ('rot1', 0), ('rot2', 0), ('rot3', 0), ('state', 'normal'), ('thr0', 25.0), ('thr1', 26.0), ('thr2', 26.0), ('thr3', 26.0), ('time', 1.4), ('watertemp', 25.23), ('yaw', 0.0)]
[('compass', 93.25), ('cur0', 0.0), ('cur1', 0.0), ('cur2', 0.0), ('datetime', '2019-07-18 13:46:16.527563'), ('depth', -0.248), ('flw0', 0), ('flw1', 0), ('flw2', 0), ('flw3', 0), ('lipoC2', 0.0), ('lipoC3S3', 0.0), ('mgs', 0), ('pitch', -1.55), ('roll', 1.28), ('rot0', 0), ('rot1', 0), ('rot2', 0), ('rot3', 0), ('state', 'normal'), ('thr0', 25.0), ('thr1', 26.0), ('thr2', 26.0), ('thr3', 26.0), ('time', 1.56), ('watertemp', 25.18), ('yaw', 0.0)]
[('compass', 93.25), ('cur0', 0.0), ('cur1', 0.0), ('cur2', 0.0), ('datetime', '2019-07-18 13:46:16.744737'), ('depth', -0.248), ('flw0', 0), ('flw1', 0), ('flw2', 0), ('flw3', 0), ('lipoC2', 0.0), ('lipoC3S3', 0.0), ('mgs', 0), ('pitch', -1.55), ('roll', 1.28), ('rot0', 0), ('rot1', 0), ('rot2', 0), ('rot3', 0), ('state', 'normal'), ('thr0', 25.0), ('thr1', 26.0), ('thr2', 26.0), ('thr3', 26.0), ('time', 1.72), ('watertemp', 25.18), ('yaw', 0.0)]
[('compass', 93.25), ('cur0', 0.0), ('cur1', 0.0), ('cur2', 0.0), ('datetime', '2019-07-18 13:46:16.961983'), ('depth', -0.248), ('flw0', 0), ('flw1', 0), ('flw2', 0), ('flw3', 0), ('lipoC2', 0.0), ('lipoC3S3', 0.0), ('mgs', 0), ('pitch', -1.55), ('roll', 1.28), ('rot0', 0), ('rot1', 0), ('rot2', 0), ('rot3', 0), ('state', 'normal'), ('thr0', 25.0), ('thr1', 26.0), ('thr2', 26.0), ('thr3', 26.0), ('time', 1.88), ('watertemp', 25.18), ('yaw', 0.0)]
[('compass', 93.25), ('cur0', 0.0), ('cur1', 0.0), ('cur2', 0.0), ('datetime', '2019-07-18 13:46:17.179112'), ('depth', -0.248), ('flw0', 0), ('flw1', 0), ('flw2', 0), ('flw3', 0), ('lipoC2', 0.0), ('lipoC3S3', 0.0), ('mgs', 0), ('pitch', -1.55), ('roll', 1.28), ('rot0', 0), ('rot1', 0), ('rot2', 0), ('rot3', 0), ('state', 'normal'), ('thr0', 25.0), ('thr1', 26.0), ('thr2', 26.0), ('thr3', 26.0), ('time', 2.04), ('watertemp', 25.18), ('yaw', 0.0)]
[('compass', 93.25), ('cur0', 0.0), ('cur1', 0.0), ('cur2', 0.0), ('datetime', '2019-07-18 13:46:17.396162'), ('depth', -0.248), ('flw0', 0), ('flw1', 0), ('flw2', 0), ('flw3', 0), ('lipoC2', 0.0), ('lipoC3S3', 0.0), ('mgs', 0), ('pitch', -1.55), ('roll', 1.28), ('rot0', 0), ('rot1', 0), ('rot2', 0), ('rot3', 0), ('state', 'normal'), ('thr0', 25.0), ('thr1', 26.0), ('thr2', 26.0), ('thr3', 26.0), ('time', 2.2), ('watertemp', 25.18), ('yaw', 0.0)]
[('compass', 93.25), ('cur0', 0.0), ('cur1', 0.0), ('cur2', 0.0), ('datetime', '2019-07-18 13:46:17.613736'), ('depth', -0.248), ('flw0', 0), ('flw1', 0), ('flw2', 0), ('flw3', 0), ('lipoC2', 0.0), ('lipoC3S3', 0.0), ('mgs', 0), ('pitch', -1.55), ('roll', 1.28), ('rot0', 0), ('rot1', 0), ('rot2', 0), ('rot3', 0), ('state', 'normal'), ('thr0', 25.0), ('thr1', 26.0), ('thr2', 26.0), ('thr3', 26.0), ('time', 2.36), ('watertemp', 25.18), ('yaw', 0.0)]
[('compass', 93.25), ('cur0', 0.0), ('cur1', 0.0), ('cur2', 0.0), ('datetime', '2019-07-18 13:46:17.830786'), ('depth', -0.248), ('flw0', 0), ('flw1', 0), ('flw2', 0), ('flw3', 0), ('lipoC2', 0.0), ('lipoC3S3', 0.0), ('mgs', 0), ('pitch', -1.55), ('roll', 1.28), ('rot0', 0), ('rot1', 0), ('rot2', 0), ('rot3', 0), ('state', 'normal'), ('thr0', 25.0), ('thr1', 26.0), ('thr2', 26.0), ('thr3', 26.0), ('time', 2.53), ('watertemp', 25.19), ('yaw', 0.0)]
[('compass', 93.25), ('cur0', 0.0), ('cur1', 0.0), ('cur2', 0.0), ('datetime', '2019-07-18 13:46:18.198647'), ('depth', -0.248), ('flw0', 0), ('flw1', 0), ('flw2', 0), ('flw3', 0), ('lipoC2', 0.0), ('lipoC3S3', 0.0), ('mgs', 0), ('pitch', -1.55), ('roll', 1.28), ('rot0', 0), ('rot1', 0), ('rot2', 0), ('rot3', 0), ('state', 'normal'), ('thr0', 25.0), ('thr1', 26.0), ('thr2', 26.0), ('thr3', 26.0), ('time', 3.65), ('watertemp', 25.19), ('yaw', 0.0)]
[('compass', 93.25), ('cur0', 0.0), ('cur1', 0.0), ('cur2', 0.0), ('datetime', '2019-07-18 13:46:18.415808'), ('depth', -0.248), ('flw0', 0), ('flw1', 0), ('flw2', 0), ('flw3', 0), ('lipoC2', 0.0), ('lipoC3S3', 0.0), ('mgs', 0), ('pitch', -1.55), ('roll', 1.28), ('rot0', 0), ('rot1', 0), ('rot2', 0), ('rot3', 0), ('state', 'normal'), ('thr0', 25.0), ('thr1', 26.0), ('thr2', 26.0), ('thr3', 26.0), ('time', 3.81), ('watertemp', 25.19), ('yaw', 0.0)]
[('compass', 93.25), ('cur0', 0.0), ('cur1', 0.0), ('cur2', 0.0), ('datetime', '2019-07-18 13:46:18.632913'), ('depth', -0.248), ('flw0', 0), ('flw1', 0), ('flw2', 0), ('flw3', 0), ('lipoC2', 0.0), ('lipoC3S3', 0.0), ('mgs', 0), ('pitch', -1.55), ('roll', 1.28), ('rot0', 0), ('rot1', 0), ('rot2', 0), ('rot3', 0), ('state', 'normal'), ('thr0', 25.0), ('thr1', 26.0), ('thr2', 26.0), ('thr3', 26.0), ('time', 3.97), ('watertemp', 25.19), ('yaw', 0.0)]
[('compass', 93.25), ('cur0', 0.0), ('cur1', 0.0), ('cur2', 0.0), ('datetime', '2019-07-18 13:46:18.851156'), ('depth', -0.248), ('flw0', 0), ('flw1', 0), ('flw2', 0), ('flw3', 0), ('lipoC2', 0.0), ('lipoC3S3', 0.0), ('mgs', 0), ('pitch', -1.55), ('roll', 1.28), ('rot0', 0), ('rot1', 0), ('rot2', 0), ('rot3', 0), ('state', 'normal'), ('thr0', 25.0), ('thr1', 26.0), ('thr2', 26.0), ('thr3', 26.0), ('time', 4.13), ('watertemp', 25.19), ('yaw', 0.0)]
[('compass', 93.25), ('cur0', 0.0), ('cur1', 0.0), ('cur2', 0.0), ('datetime', '2019-07-18 13:46:19.068239'), ('depth', -0.248), ('flw0', 0), ('flw1', 0), ('flw2', 0), ('flw3', 0), ('lipoC2', 0.0), ('lipoC3S3', 0.0), ('mgs', 0), ('pitch', -1.55), ('roll', 1.28), ('rot0', 0), ('rot1', 0), ('rot2', 0), ('rot3', 0), ('state', 'normal'), ('thr0', 25.0), ('thr1', 26.0), ('thr2', 26.0), ('thr3', 26.0), ('time', 4.29), ('watertemp', 25.19), ('yaw', 0.0)]
[('compass', 93.25), ('cur0', 0.0), ('cur1', 0.0), ('cur2', 0.0), ('datetime', '2019-07-18 13:46:19.285938'), ('depth', -0.248), ('flw0', 0), ('flw1', 0), ('flw2', 0), ('flw3', 0), ('lipoC2', 0.0), ('lipoC3S3', 0.0), ('mgs', 0), ('pitch', -1.55), ('roll', 1.28), ('rot0', 0), ('rot1', 0), ('rot2', 0), ('rot3', 0), ('state', 'normal'), ('thr0', 25.0), ('thr1', 26.0), ('thr2', 26.0), ('thr3', 26.0), ('time', 4.45), ('watertemp', 25.19), ('yaw', 0.0)]
[('compass', 93.25), ('cur0', 0.0), ('cur1', 0.0), ('cur2', 0.0), ('datetime', '2019-07-18 13:46:19.504487'), ('depth', -0.248), ('flw0', 0), ('flw1', 0), ('flw2', 0), ('flw3', 0), ('lipoC2', 0.0), ('lipoC3S3', 0.0), ('mgs', 0), ('pitch', -1.55), ('roll', 1.28), ('rot0', 0), ('rot1', 0), ('rot2', 0), ('rot3', 0), ('state', 'normal'), ('thr0', 25.0), ('thr1', 26.0), ('thr2', 26.0), ('thr3', 26.0), ('time', 4.61), ('watertemp', 25.2), ('yaw', 0.0)]
[('compass', 93.25), ('cur0', 0.0), ('cur1', 0.0), ('cur2', 0.0), ('datetime', '2019-07-18 13:46:19.721461'), ('depth', -0.248), ('flw0', 0), ('flw1', 0), ('flw2', 0), ('flw3', 0), ('lipoC2', 0.0), ('lipoC3S3', 0.0), ('mgs', 0), ('pitch', -1.55), ('roll', 1.28), ('rot0', 0), ('rot1', 0), ('rot2', 0), ('rot3', 0), ('state', 'normal'), ('thr0', 25.0), ('thr1', 26.0), ('thr2', 26.0), ('thr3', 26.0), ('time', 4.77), ('watertemp', 25.2), ('yaw', 0.0)]
[('compass', 93.25), ('cur0', 0.0), ('cur1', 0.0), ('cur2', 0.0), ('datetime', '2019-07-18 13:46:19.939014'), ('depth', -0.248), ('flw0', 0), ('flw1', 0), ('flw2', 0), ('flw3', 0), ('lipoC2', 0.0), ('lipoC3S3', 0.0), ('mgs', 0), ('pitch', -1.55), ('roll', 1.28), ('rot0', 0), ('rot1', 0), ('rot2', 0), ('rot3', 0), ('state', 'normal'), ('thr0', 25.0), ('thr1', 26.0), ('thr2', 26.0), ('thr3', 26.0), ('time', 4.93), ('watertemp', 25.19), ('yaw', 0.0)]
[('compass', 93.25), ('cur0', 0.0), ('cur1', 0.0), ('cur2', 0.0), ('datetime', '2019-07-18 13:46:20.290087'), ('depth', -0.248), ('flw0', 0), ('flw1', 0), ('flw2', 0), ('flw3', 0), ('lipoC2', 0.0), ('lipoC3S3', 0.0), ('mgs', 0), ('pitch', -1.55), ('roll', 1.28), ('rot0', 0), ('rot1', 0), ('rot2', 0), ('rot3', 0), ('state', 'normal'), ('thr0', 25.0), ('thr1', 26.0), ('thr2', 26.0), ('thr3', 26.0), ('time', 5.74), ('watertemp', 25.2), ('yaw', 0.0)]
[('compass', 93.25), ('cur0', 0.0), ('cur1', 0.0), ('cur2', 0.0), ('datetime', '2019-07-18 13:46:20.507166'), ('depth', -0.248), ('flw0', 0), ('flw1', 0), ('flw2', 0), ('flw3', 0), ('lipoC2', 0.0), ('lipoC3S3', 0.0), ('mgs', 0), ('pitch', -1.55), ('roll', 1.28), ('rot0', 0), ('rot1', 0), ('rot2', 0), ('rot3', 0), ('state', 'normal'), ('thr0', 25.0), ('thr1', 26.0), ('thr2', 26.0), ('thr3', 26.0), ('time', 5.9), ('watertemp', 25.2), ('yaw', 0.0)]
[('compass', 93.25), ('cur0', 0.0), ('cur1', 0.0), ('cur2', 0.0), ('datetime', '2019-07-18 13:46:20.724207'), ('depth', -0.248), ('flw0', 0), ('flw1', 0), ('flw2', 0), ('flw3', 0), ('lipoC2', 0.0), ('lipoC3S3', 0.0), ('mgs', 0), ('pitch', -1.55), ('roll', 1.28), ('rot0', 0), ('rot1', 0), ('rot2', 0), ('rot3', 0), ('state', 'normal'), ('thr0', 25.0), ('thr1', 26.0), ('thr2', 26.0), ('thr3', 26.0), ('time', 6.06), ('watertemp', 25.2), ('yaw', 0.0)]
[('compass', 93.25), ('cur0', 0.0), ('cur1', 0.0), ('cur2', 0.0), ('datetime', '2019-07-18 13:46:20.941159'), ('depth', -0.248), ('flw0', 0), ('flw1', 0), ('flw2', 0), ('flw3', 0), ('lipoC2', 0.0), ('lipoC3S3', 0.0), ('mgs', 0), ('pitch', -1.55), ('roll', 1.28), ('rot0', 0), ('rot1', 0), ('rot2', 0), ('rot3', 0), ('state', 'normal'), ('thr0', 25.0), ('thr1', 26.0), ('thr2', 26.0), ('thr3', 26.0), ('time', 6.22), ('watertemp', 25.2), ('yaw', 0.0)]
[('compass', 93.25), ('cur0', 0.0), ('cur1', 0.0), ('cur2', 0.0), ('datetime', '2019-07-18 13:46:21.158164'), ('depth', -0.248), ('flw0', 0), ('flw1', 0), ('flw2', 0), ('flw3', 0), ('lipoC2', 0.0), ('lipoC3S3', 0.0), ('mgs', 0), ('pitch', -1.55), ('roll', 1.28), ('rot0', 0), ('rot1', 0), ('rot2', 0), ('rot3', 0), ('state', 'normal'), ('thr0', 25.0), ('thr1', 26.0), ('thr2', 26.0), ('thr3', 26.0), ('time', 6.38), ('watertemp', 25.2), ('yaw', 0.0)]
[('compass', 93.25), ('cur0', 0.0), ('cur1', 0.0), ('cur2', 0.0), ('datetime', '2019-07-18 13:46:21.375077'), ('depth', -0.248), ('flw0', 0), ('flw1', 0), ('flw2', 0), ('flw3', 0), ('lipoC2', 0.0), ('lipoC3S3', 0.0), ('mgs', 0), ('pitch', -1.55), ('roll', 1.28), ('rot0', 0), ('rot1', 0), ('rot2', 0), ('rot3', 0), ('state', 'normal'), ('thr0', 25.0), ('thr1', 26.0), ('thr2', 26.0), ('thr3', 26.0), ('time', 6.54), ('watertemp', 25.2), ('yaw', 0.0)]
[('compass', 93.25), ('cur0', 0.0), ('cur1', 0.0), ('cur2', 0.0), ('datetime', '2019-07-18 13:46:21.592004'), ('depth', -0.248), ('flw0', 0), ('flw1', 0), ('flw2', 0), ('flw3', 0), ('lipoC2', 0.0), ('lipoC3S3', 0.0), ('mgs', 0), ('pitch', -1.55), ('roll', 1.28), ('rot0', 0), ('rot1', 0), ('rot2', 0), ('rot3', 0), ('state', 'normal'), ('thr0', 25.0), ('thr1', 26.0), ('thr2', 26.0), ('thr3', 26.0), ('time', 6.7), ('watertemp', 25.2), ('yaw', 0.0)]
[('compass', 93.25), ('cur0', 0.0), ('cur1', 0.0), ('cur2', 0.0), ('datetime', '2019-07-18 13:46:21.809525'), ('depth', -0.248), ('flw0', 0), ('flw1', 0), ('flw2', 0), ('flw3', 0), ('lipoC2', 0.0), ('lipoC3S3', 0.0), ('mgs', 0), ('pitch', -1.55), ('roll', 1.28), ('rot0', 0), ('rot1', 0), ('rot2', 0), ('rot3', 0), ('state', 'normal'), ('thr0', 25.0), ('thr1', 26.0), ('thr2', 26.0), ('thr3', 26.0), ('time', 6.86), ('watertemp', 25.2), ('yaw', 0.0)]
[('compass', 93.25), ('cur0', 0.0), ('cur1', 0.0), ('cur2', 0.0), ('datetime', '2019-07-18 13:46:22.026553'), ('depth', -0.248), ('flw0', 0), ('flw1', 0), ('flw2', 0), ('flw3', 0), ('lipoC2', 0.0), ('lipoC3S3', 0.0), ('mgs', 0), ('pitch', -1.55), ('roll', 1.28), ('rot0', 0), ('rot1', 0), ('rot2', 0), ('rot3', 0), ('state', 'normal'), ('thr0', 25.0), ('thr1', 26.0), ('thr2', 26.0), ('thr3', 26.0), ('time', 7.02), ('watertemp', 25.19), ('yaw', 0.0)]
[('compass', 93.25), ('cur0', 0.0), ('cur1', 0.0), ('cur2', 0.0), ('datetime', '2019-07-18 13:46:22.542430'), ('depth', -0.248), ('flw0', 0), ('flw1', 0), ('flw2', 0), ('flw3', 0), ('lipoC2', 0.0), ('lipoC3S3', 0.0), ('mgs', 0), ('pitch', -1.55), ('roll', 1.28), ('rot0', 0), ('rot1', 0), ('rot2', 0), ('rot3', 0), ('state', 'normal'), ('thr0', 25.0), ('thr1', 26.0), ('thr2', 26.0), ('thr3', 26.0), ('time', 7.99), ('watertemp', 25.2), ('yaw', 0.0)]
[('compass', 93.25), ('cur0', 0.0), ('cur1', 0.0), ('cur2', 0.0), ('datetime', '2019-07-18 13:46:22.759879'), ('depth', -0.248), ('flw0', 0), ('flw1', 0), ('flw2', 0), ('flw3', 0), ('lipoC2', 0.0), ('lipoC3S3', 0.0), ('mgs', 0), ('pitch', -1.55), ('roll', 1.28), ('rot0', 0), ('rot1', 0), ('rot2', 0), ('rot3', 0), ('state', 'normal'), ('thr0', 25.0), ('thr1', 26.0), ('thr2', 26.0), ('thr3', 26.0), ('time', 8.15), ('watertemp', 25.19), ('yaw', 0.0)]
[('compass', 93.25), ('cur0', 0.0), ('cur1', 0.0), ('cur2', 0.0), ('datetime', '2019-07-18 13:46:23.003845'), ('depth', -0.248), ('flw0', 0), ('flw1', 0), ('flw2', 0), ('flw3', 0), ('lipoC2', 0.0), ('lipoC3S3', 0.0), ('mgs', 0), ('pitch', -1.55), ('roll', 1.28), ('rot0', 0), ('rot1', 0), ('rot2', 0), ('rot3', 0), ('state', 'normal'), ('thr0', 25.0), ('thr1', 26.0), ('thr2', 26.0), ('thr3', 26.0), ('time', 8.31), ('watertemp', 25.2), ('yaw', 0.0)]
[('compass', 93.25), ('cur0', 0.0), ('cur1', 0.0), ('cur2', 0.0), ('datetime', '2019-07-18 13:46:23.223290'), ('depth', -0.248), ('flw0', 0), ('flw1', 0), ('flw2', 0), ('flw3', 0), ('lipoC2', 0.0), ('lipoC3S3', 0.0), ('mgs', 0), ('pitch', -1.55), ('roll', 1.28), ('rot0', 0), ('rot1', 0), ('rot2', 0), ('rot3', 0), ('state', 'normal'), ('thr0', 25.0), ('thr1', 26.0), ('thr2', 26.0), ('thr3', 26.0), ('time', 8.47), ('watertemp', 25.2), ('yaw', 0.0)]
[('compass', 93.25), ('cur0', 0.0), ('cur1', 0.0), ('cur2', 0.0), ('datetime', '2019-07-18 13:46:23.440457'), ('depth', -0.248), ('flw0', 0), ('flw1', 0), ('flw2', 0), ('flw3', 0), ('lipoC2', 0.0), ('lipoC3S3', 0.0), ('mgs', 0), ('pitch', -1.55), ('roll', 1.28), ('rot0', 0), ('rot1', 0), ('rot2', 0), ('rot3', 0), ('state', 'normal'), ('thr0', 25.0), ('thr1', 26.0), ('thr2', 26.0), ('thr3', 26.0), ('time', 8.63), ('watertemp', 25.2), ('yaw', 0.0)]
[('compass', 93.25), ('cur0', 0.0), ('cur1', 0.0), ('cur2', 0.0), ('datetime', '2019-07-18 13:46:23.659006'), 