[('compass', 7.47), ('cur0', 0.0), ('cur1', 0.0), ('cur2', 0.0), ('datetime', '2019-07-12 14:01:52.799577'), ('depth', -0.03), ('flw0', 0), ('flw1', 0), ('flw2', 0), ('flw3', 0), ('lipoC2', 0.0), ('lipoC3S3', 0.0), ('mgs', 0), ('pitch', 99.8), ('roll', 4.21), ('rot0', 0), ('rot1', 0), ('rot2', 0), ('rot3', 0), ('state', 'normal'), ('thr0', 27.0), ('thr1', 27.0), ('thr2', 28.0), ('thr3', 27.0), ('time', 1.4), ('watertemp', 23.52), ('yaw', 0.0)]
[('compass', 7.47), ('cur0', 0.0), ('cur1', 0.0), ('cur2', 0.0), ('datetime', '2019-07-12 14:01:53.017194'), ('depth', -0.03), ('flw0', 0), ('flw1', 0), ('flw2', 0), ('flw3', 0), ('lipoC2', 0.0), ('lipoC3S3', 0.0), ('mgs', 0), ('pitch', 99.8), ('roll', 4.21), ('rot0', 0), ('rot1', 0), ('rot2', 0), ('rot3', 0), ('state', 'normal'), ('thr0', 27.0), ('thr1', 27.0), ('thr2', 27.0), ('thr3', 28.0), ('time', 1.56), ('watertemp', 23.46), ('yaw', 0.0)]
[('compass', 7.47), ('cur0', 0.0), ('cur1', 0.0), ('cur2', 0.0), ('datetime', '2019-07-12 14:01:53.233914'), ('depth', -0.03), ('flw0', 0), ('flw1', 0), ('flw2', 0), ('flw3', 0), ('lipoC2', 0.0), ('lipoC3S3', 0.0), ('mgs', 0), ('pitch', 99.8), ('roll', 4.21), ('rot0', 0), ('rot1', 0), ('rot2', 0), ('rot3', 0), ('state', 'normal'), ('thr0', 27.0), ('thr1', 27.0), ('thr2', 28.0), ('thr3', 27.0), ('time', 1.72), ('watertemp', 23.46), ('yaw', 0.0)]
[('compass', 7.47), ('cur0', 0.0), ('cur1', 0.0), ('cur2', 0.0), ('datetime', '2019-07-12 14:01:53.450215'), ('depth', -0.03), ('flw0', 0), ('flw1', 0), ('flw2', 0), ('flw3', 0), ('lipoC2', 0.0), ('lipoC3S3', 0.0), ('mgs', 0), ('pitch', 99.8), ('roll', 4.21), ('rot0', 0), ('rot1', 0), ('rot2', 0), ('rot3', 0), ('state', 'normal'), ('thr0', 27.0), ('thr1', 27.0), ('thr2', 28.0), ('thr3', 27.0), ('time', 1.88), ('watertemp', 23.46), ('yaw', 0.0)]
[('compass', 7.47), ('cur0', 0.0), ('cur1', 0.0), ('cur2', 0.0), ('datetime', '2019-07-12 14:01:53.666660'), ('depth', -0.02), ('flw0', 0), ('flw1', 0), ('flw2', 0), ('flw3', 0), ('lipoC2', 0.0), ('lipoC3S3', 0.0), ('mgs', 0), ('pitch', 99.8), ('roll', 4.21), ('rot0', 0), ('rot1', 0), ('rot2', 0), ('rot3', 0), ('state', 'normal'), ('thr0', 27.0), ('thr1', 27.0), ('thr2', 27.0), ('thr3', 28.0), ('time', 2.04), ('watertemp', 23.47), ('yaw', 0.0)]
[('compass', 7.47), ('cur0', 0.0), ('cur1', 0.0), ('cur2', 0.0), ('datetime', '2019-07-12 14:01:53.882989'), ('depth', -0.03), ('flw0', 0), ('flw1', 0), ('flw2', 0), ('flw3', 0), ('lipoC2', 0.0), ('lipoC3S3', 0.0), ('mgs', 0), ('pitch', 99.8), ('roll', 4.21), ('rot0', 0), ('rot1', 0), ('rot2', 0), ('rot3', 0), ('state', 'normal'), ('thr0', 27.0), ('thr1', 27.0), ('thr2', 28.0), ('thr3', 27.0), ('time', 2.2), ('watertemp', 23.47), ('yaw', 0.0)]
[('compass', 7.47), ('cur0', 0.0), ('cur1', 0.0), ('cur2', 0.0), ('datetime', '2019-07-12 14:01:54.099356'), ('depth', -0.03), ('flw0', 0), ('flw1', 0), ('flw2', 0), ('flw3', 0), ('lipoC2', 0.0), ('lipoC3S3', 0.0), ('mgs', 0), ('pitch', 99.8), ('roll', 4.21), ('rot0', 0), ('rot1', 0), ('rot2', 0), ('rot3', 0), ('state', 'normal'), ('thr0', 27.0), ('thr1', 28.0), ('thr2', 27.0), ('thr3', 28.0), ('time', 2.36), ('watertemp', 23.47), ('yaw', 0.0)]
[('compass', 7.47), ('cur0', 0.0), ('cur1', 0.0), ('cur2', 0.0), ('datetime', '2019-07-12 14:01:54.315713'), ('depth', -0.03), ('flw0', 0), ('flw1', 0), ('flw2', 0), ('flw3', 0), ('lipoC2', 0.0), ('lipoC3S3', 0.0), ('mgs', 0), ('pitch', 99.8), ('roll', 4.21), ('rot0', 0), ('rot1', 0), ('rot2', 0), ('rot3', 0), ('state', 'normal'), ('thr0', 27.0), ('thr1', 27.0), ('thr2', 27.0), ('thr3', 27.0), ('time', 2.52), ('watertemp', 23.47), ('yaw', 0.0)]
[('compass', 7.47), ('cur0', 0.0), ('cur1', 0.0), ('cur2', 0.0), ('datetime', '2019-07-12 14:01:54.532072'), ('depth', -0.03), ('flw0', 0), ('flw1', 0), ('flw2', 0), ('flw3', 0), ('lipoC2', 0.0), ('lipoC3S3', 0.0), ('mgs', 0), ('pitch', 99.8), ('roll', 4.21), ('rot0', 0), ('rot1', 0), ('rot2', 0), ('rot3', 0), ('state', 'normal'), ('thr0', 27.0), ('thr1', 27.0), ('thr2', 27.0), ('thr3', 27.0), ('time', 2.68), ('watertemp', 23.47), ('yaw', 0.0)]
[('compass', 7.47), ('cur0', 0.0), ('cur1', 0.0), ('cur2', 0.0), ('datetime', '2019-07-12 14:01:54.748387'), ('depth', -0.03), ('flw0', 0), ('flw1', 0), ('flw2', 0), ('flw3', 0), ('lipoC2', 0.0), ('lipoC3S3', 0.0), ('mgs', 0), ('pitch', 99.8), ('roll', 4.21), ('rot0', 0), ('rot1', 0), ('rot2', 0), ('rot3', 0), ('state', 'normal'), ('thr0', 27.0), ('thr1', 27.0), ('thr2', 28.0), ('thr3', 27.0), ('time', 2.84), ('watertemp', 23.47), ('yaw', 0.0)]
[('compass', 7.47), ('cur0', 0.0), ('cur1', 0.0), ('cur2', 0.0), ('datetime', '2019-07-12 14:01:54.964752'), ('depth', -0.03), ('flw0', 0), ('flw1', 0), ('flw2', 0), ('flw3', 0), ('lipoC2', 0.0), ('lipoC3S3', 0.0), ('mgs', 0), ('pitch', 99.8), ('roll', 4.21), ('rot0', 0), ('rot1', 0), ('rot2', 0), ('rot3', 0), ('state', 'normal'), ('thr0', 27.0), ('thr1', 27.0), ('thr2', 28.0), ('thr3', 27.0), ('time', 3.0), ('watertemp', 23.47), ('yaw', 0.0)]
[('compass', 7.47), ('cur0', 0.0), ('cur1', 0.0), ('cur2', 0.0), ('datetime', '2019-07-12 14:01:55.181122'), ('depth', -0.03), ('flw0', 0), ('flw1', 0), ('flw2', 0), ('flw3', 0), ('lipoC2', 0.0), ('lipoC3S3', 0.0), ('mgs', 0), ('pitch', 99.8), ('roll', 4.21), ('rot0', 0), ('rot1', 0), ('rot2', 0), ('rot3', 0), ('state', 'normal'), ('thr0', 27.0), ('thr1', 27.0), ('thr2', 28.0), ('thr3', 27.0), ('time', 3.16), ('watertemp', 23.47), ('yaw', 0.0)]
[('compass', 7.47), ('cur0', 0.0), ('cur1', 0.0), ('cur2', 0.0), ('datetime', '2019-07-12 14:01:55.397425'), ('depth', -0.03), ('flw0', 0), ('flw1', 0), ('flw2', 0), ('flw3', 0), ('lipoC2', 0.0), ('lipoC3S3', 0.0), ('mgs', 0), ('pitch', 99.8), ('roll', 4.21), ('rot0', 0), ('rot1', 0), ('rot2', 0), ('rot3', 0), ('state', 'normal'), ('thr0', 27.0), ('thr1', 27.0), ('thr2', 27.0), ('thr3', 28.0), ('time', 3.32), ('watertemp', 23.47), ('yaw', 0.0)]
[('compass', 7.47), ('cur0', 0.0), ('cur1', 0.0), ('cur2', 0.0), ('datetime', '2019-07-12 14:01:55.613723'), ('depth', -0.03), ('flw0', 0), ('flw1', 0), ('flw2', 0), ('flw3', 0), ('lipoC2', 0.0), ('lipoC3S3', 0.0), ('mgs', 0), ('pitch', 99.8), ('roll', 4.21), ('rot0', 0), ('rot1', 0), ('rot2', 0), ('rot3', 0), ('state', 'normal'), ('thr0', 27.0), ('thr1', 27.0), ('thr2', 28.0), ('thr3', 27.0), ('time', 3.48), ('watertemp', 23.47), ('yaw', 0.0)]
[('compass', 7.47), ('cur0', 0.0), ('cur1', 0.0), ('cur2', 0.0), ('datetime', '2019-07-12 14:01:55.830073'), ('depth', -0.02), ('flw0', 0), ('flw1', 0), ('flw2', 0), ('flw3', 0), ('lipoC2', 0.0), ('lipoC3S3', 0.0), ('mgs', 0), ('pitch', 99.8), ('roll', 4.21), ('rot0', 0), ('rot1', 0), ('rot2', 0), ('rot3', 0), ('state', 'normal'), ('thr0', 27.0), ('thr1', 27.0), ('thr2', 27.0), ('thr3', 27.0), ('time', 3.64), ('watertemp', 23.47), ('yaw', 0.0)]
[('compass', 7.47), ('cur0', 0.0), ('cur1', 0.0), ('cur2', 0.0), ('datetime', '2019-07-12 14:01:56.046354'), ('depth', -0.03), ('flw0', 0), ('flw1', 0), ('flw2', 0), ('flw3', 0), ('lipoC2', 0.0), ('lipoC3S3', 0.0), ('mgs', 0), ('pitch', 99.8), ('roll', 4.21), ('rot0', 0), ('rot1', 0), ('rot2', 0), ('rot3', 0), ('state', 'normal'), ('thr0', 27.0), ('thr1', 27.0), ('thr2', 28.0), ('thr3', 27.0), ('time', 3.8), ('watertemp', 23.47), ('yaw', 0.0)]
[('compass', 7.47), ('cur0', 0.0), ('cur1', 0.0), ('cur2', 0.0), ('datetime', '2019-07-12 14:01:56.262686'), ('depth', -0.03), ('flw0', 0), ('flw1', 0), ('flw2', 0), ('flw3', 0), ('lipoC2', 0.0), ('lipoC3S3', 0.0), ('mgs', 0), ('pitch', 99.8), ('roll', 4.21), ('rot0', 0), ('rot1', 0), ('rot2', 0), ('rot3', 0), ('state', 'normal'), ('thr0', 27.0), ('thr1', 27.0), ('thr2', 28.0), ('thr3', 27.0), ('time', 3.96), ('watertemp', 23.47), ('yaw', 0.0)]
[('compass', 7.47), ('cur0', 0.0), ('cur1', 0.0), ('cur2', 0.0), ('datetime', '2019-07-12 14:01:56.479022'), ('depth', -0.03), ('flw0', 0), ('flw1', 0), ('flw2', 0), ('flw3', 0), ('lipoC2', 0.0), ('lipoC3S3', 0.0), ('mgs', 0), ('pitch', 99.8), ('roll', 4.21), ('rot0', 0), ('rot1', 0), ('rot2', 0), ('rot3', 0), ('state', 'normal'), ('thr0', 27.0), ('thr1', 27.0), ('thr2', 27.0), ('thr3', 27.0), ('time', 4.13), ('watertemp', 23.47), ('yaw', 0.0)]
[('compass', 7.47), ('cur0', 0.0), ('cur1', 0.0), ('cur2', 0.0), ('datetime', '2019-07-12 14:01:56.695339'), ('depth', -0.03), ('flw0', 0), ('flw1', 0), ('flw2', 0), ('flw3', 0), ('lipoC2', 0.0), ('lipoC3S3', 0.0), ('mgs', 0), ('pitch', 99.8), ('roll', 4.21), ('rot0', 0), ('rot1', 0), ('rot2', 0), ('rot3', 0), ('state', 'normal'), ('thr0', 27.0), ('thr1', 27.0), ('thr2', 28.0), ('thr3', 27.0), ('time', 4.29), ('watertemp', 23.47), ('yaw', 0.0)]
[('compass', 7.47), ('cur0', 0.0), ('cur1', 0.0), ('cur2', 0.0), ('datetime', '2019-07-12 14:01:56.913246'), ('depth', -0.03), ('flw0', 0), ('flw1', 0), ('flw2', 0), ('flw3', 0), ('lipoC2', 0.0), ('lipoC3S3', 0.0), ('mgs', 0), ('pitch', 99.8), ('roll', 4.21), ('rot0', 0), ('rot1', 0), ('rot2', 0), ('rot3', 0), ('state', 'normal'), ('thr0', 27.0), ('thr1', 27.0), ('thr2', 28.0), ('thr3', 27.0), ('time', 4.45), ('watertemp', 23.47), ('yaw', 0.0)]
[('compass', 7.47), ('cur0', 0.0), ('cur1', 0.0), ('cur2', 0.0), ('datetime', '2019-07-12 14:01:57.129581'), ('depth', -0.03), ('flw0', 0), ('flw1', 0), ('flw2', 0), ('flw3', 0), ('lipoC2', 0.0), ('lipoC3S3', 0.0), ('mgs', 0), ('pitch', 99.8), ('roll', 4.21), ('rot0', 0), ('rot1', 0), ('rot2', 0), ('rot3', 0), ('state', 'normal'), ('thr0', 27.0), ('thr1', 27.0), ('thr2', 27.0), ('thr3', 27.0), ('time', 4.61), ('watertemp', 23.47), ('yaw', 0.0)]
[('compass', 7.47), ('cur0', 0.0), ('cur1', 0.0), ('cur2', 0.0), ('datetime', '2019-07-12 14:01:57.345853'), ('depth', -0.03), ('flw0', 0), ('flw1', 0), ('flw2', 0), ('flw3', 0), ('lipoC2', 0.0), ('lipoC3S3', 0.0), ('mgs', 0), ('pitch', 99.8), ('roll', 4.21), ('rot0', 0), ('rot1', 0), ('rot2', 0), ('rot3', 0), ('state', 'normal'), ('thr0', 27.0), ('thr1', 27.0), ('thr2', 28.0), ('thr3', 27.0), ('time', 4.77), ('watertemp', 23.47), ('yaw', 0.0)]
[('compass', 7.47), ('cur0', 0.0), ('cur1', 0.0), ('cur2', 0.0), ('datetime', '2019-07-12 14:01:57.562195'), ('depth', -0.03), ('flw0', 0), ('flw1', 0), ('flw2', 0), ('flw3', 0), ('lipoC2', 0.0), ('lipoC3S3', 0.0), ('mgs', 0), ('pitch', 99.8), ('roll', 4.21), ('rot0', 0), ('rot1', 0), ('rot2', 0), ('rot3', 0), ('state', 'normal'), ('thr0', 27.0), ('thr1', 27.0), ('thr2', 28.0), ('thr3', 27.0), ('time', 4.93), ('watertemp', 23.47), ('yaw', 0.0)]
[('compass', 7.47), ('cur0', 0.0), ('cur1', 0.0), ('cur2', 0.0), ('datetime', '2019-07-12 14:01:57.778495'), ('depth', -0.03), ('flw0', 0), ('flw1', 0), ('flw2', 0), ('flw3', 0), ('lipoC2', 0.0), ('lipoC3S3', 0.0), ('mgs', 0), ('pitch', 99.8), ('roll', 4.21), ('rot0', 0), ('rot1', 0), ('rot2', 0), ('rot3', 0), ('state', 'normal'), ('thr0', 27.0), ('thr1', 27.0), ('thr2', 28.0), ('thr3', 27.0), ('time', 5.09), ('watertemp', 23.47), ('yaw', 0.0)]
[('compass', 7.47), ('cur0', 0.0), ('cur1', 0.0), ('cur2', 0.0), ('datetime', '2019-07-12 14:01:57.994831'), ('depth', -0.03), ('flw0', 0), ('flw1', 0), ('flw2', 0), ('flw3', 0), ('lipoC2', 0.0), ('lipoC3S3', 0.0), ('mgs', 0), ('pitch', 99.8), ('roll', 4.21), ('rot0', 0), ('rot1', 0), ('rot2', 0), ('rot3', 0), ('state', 'normal'), ('thr0', 27.0), ('thr1', 27.0), ('thr2', 28.0), ('thr3', 27.0), ('time', 5.25), ('watertemp', 23.47), ('yaw', 0.0)]
[('compass', 7.47), ('cur0', 0.0), ('cur1', 0.0), ('cur2', 0.0), ('datetime', '2019-07-12 14:01:58.211279'), ('depth', -0.03), ('flw0', 0), ('flw1', 0), ('flw2', 0), ('flw3', 0), ('lipoC2', 0.0), ('lipoC3S3', 0.0), ('mgs', 0), ('pitch', 99.8), ('roll', 4.21), ('rot0', 0), ('rot1', 0), ('rot2', 0), ('rot3', 0), ('state', 'normal'), ('thr0', 27.0), ('thr1', 27.0), ('thr2', 28.0), ('thr3', 27.0), ('time', 5.41), ('watertemp', 23.47), ('yaw', 0.0)]
[('compass', 7.47), ('cur0', 0.0), ('cur1', 0.0), ('cur2', 0.0), ('datetime', '2019-07-12 14:01:58.427592'), ('depth', -0.03), ('flw0', 0), ('flw1', 0), ('flw2', 0), ('flw3', 0), ('lipoC2', 0.0), ('lipoC3S3', 0.0), ('mgs', 0), ('pitch', 99.8), ('roll', 4.21), ('rot0', 0), ('rot1', 0), ('rot2', 0), ('rot3', 0), ('state', 'normal'), ('thr0', 27.0), ('thr1', 27.0), ('thr2', 28.0), ('thr3', 27.0), ('time', 5.57), ('watertemp', 23.47), ('yaw', 0.0)]
[('compass', 7.47), ('cur0', 0.0), ('cur1', 0.0), ('cur2', 0.0), ('datetime', '2019-07-12 14:01:58.643878'), ('depth', -0.03), ('flw0', 0), ('flw1', 0), ('flw2', 0), ('flw3', 0), ('lipoC2', 0.0), ('lipoC3S3', 0.0), ('mgs', 0), ('pitch', 99.8), ('roll', 4.21), ('rot0', 0), ('rot1', 0), ('rot2', 0), ('rot3', 0), ('state', 'normal'), ('thr0', 27.0), ('thr1', 27.0), ('thr2', 27.0), ('thr3', 27.0), ('time', 5.73), ('watertemp', 23.47), ('yaw', 0.0)]
[('compass', 7.47), ('cur0', 0.0), ('cur1', 0.0), ('cur2', 0.0), ('datetime', '2019-07-12 14:01:58.860148'), ('depth', -0.03), ('flw0', 0), ('flw1', 0), ('flw2', 0), ('flw3', 0), ('lipoC2', 0.0), ('lipoC3S3', 0.0), ('mgs', 0), ('pitch', 99.8), ('roll', 4.21), ('rot0', 0), ('rot1', 0), ('rot2', 0), ('rot3', 0), ('state', 'normal'), ('thr0', 27.0), ('thr1', 27.0), ('thr2', 27.0), ('thr3', 27.0), ('time', 5.89), ('watertemp', 23.47), ('yaw', 0.0)]
[('compass', 7.47), ('cur0', 0.0), ('cur1', 0.0), ('cur2', 0.0), ('datetime', '2019-07-12 14:01:59.076437'), ('depth', -0.02), ('flw0', 0), ('flw1', 0), ('flw2', 0), ('flw3', 0), ('lipoC2', 0.0), ('lipoC3S3', 0.0), ('mgs', 0), ('pitch', 99.8), ('roll', 4.21), ('rot0', 0), ('rot1', 0), ('rot2', 0), ('rot3', 0), ('state', 'normal'), ('thr0', 27.0), ('thr1', 27.0), ('thr2', 28.0), ('thr3', 27.0), ('time', 6.05), ('watertemp', 23.47), ('yaw', 0.0)]
[('compass', 7.47), ('cur0', 0.0), ('cur1', 0.0), ('cur2', 0.0), ('datetime', '2019-07-12 14:01:59.292793'), ('depth', -0.03), ('flw0', 0), ('flw1', 0), ('flw2', 0), ('flw3', 0), ('lipoC2', 0.0), ('lipoC3S3', 0.0), ('mgs', 0), ('pitch', 99.8), ('roll', 4.21), ('rot0', 0), ('rot1', 0), ('rot2', 0), ('rot3', 0), ('state', 'normal'), ('thr0', 27.0), ('thr1', 27.0), ('thr2', 27.0), ('thr3', 27.0), ('time', 6.21), ('watertemp', 23.47), ('yaw', 0.0)]
[('compass', 7.47), ('cur0', 0.0), ('cur1', 0.0), ('cur2', 0.0), ('datetime', '2019-07-12 14:01:59.509164'), ('depth', -0.03), ('flw0', 0), ('flw1', 0), ('flw2', 0), ('flw3', 0), ('lipoC2', 0.0), ('lipoC3S3', 0.0), ('mgs', 0), ('pitch', 99.8), ('roll', 4.21), ('rot0', 0), ('rot1', 0), ('rot2', 0), ('rot3', 0), ('state', 'normal'), ('thr0', 27.0), ('thr1', 27.0), ('thr2', 28.0), ('thr3', 27.0), ('time', 6.38), ('watertemp', 23.47), ('yaw', 0.0)]
[('compass', 7.47), ('cur0', 0.0), ('cur1', 0.0), ('cur2', 0.0), ('datetime', '2019-07-12 14:01:59.726051'), ('depth', -0.03), ('flw0', 0), ('flw1', 0), ('flw2', 0), ('flw3', 0), ('lipoC2', 0.0), ('lipoC3S3', 0.0), ('mgs', 0), ('pitch', 99.8), ('roll', 4.21), ('rot0', 0), ('rot1', 0), ('rot2', 0), ('rot3', 0), ('state', 'normal'), ('thr0', 27.0), ('thr1', 27.0), ('thr2', 27.0), ('thr3', 27.0), ('time', 6.54), ('watertemp', 23.47), ('yaw', 0.0)]
[('compass', 7.47), ('cur0', 0.0), ('cur1', 0.0), ('cur2', 0.0), ('datetime', '2019-07-12 14:01:59.942907'), ('depth', -0.03), ('flw0', 0), ('flw1', 0), ('flw2', 0), ('flw3', 0), ('lipoC2', 0.0), ('lipoC3S3', 0.0), ('mgs', 0), ('pitch', 99.8), ('roll', 4.21), ('rot0', 0), ('rot1', 0), ('rot2', 0), ('rot3', 0), ('state', 'normal'), ('thr0', 27.0), ('thr1', 27.0), ('thr2', 27.0), ('thr3', 27.0), ('time', 6.7), ('watertemp', 23.47), ('yaw', 0.0)]
[('compass', 7.47), ('cur0', 0.0), ('cur1', 0.0), ('cur2', 0.0), ('datetime', '2019-07-12 14:02:00.160032'), ('depth', -0.03), ('flw0', 0), ('flw1', 0), ('flw2', 0), ('flw3', 0), ('lipoC2', 0.0), ('lipoC3S3', 0.0), ('mgs', 0), ('pitch', 99.8), ('roll', 4.21), ('rot0', 0), ('rot1', 0), ('rot2', 0), ('rot3', 0), ('state', 'normal'), ('thr0', 27.0), ('thr1', 27.0), ('thr2', 27.0), ('thr3', 27.0), ('time', 6.86), ('watertemp', 23.47), ('yaw', 0.0)]
[('compass', 7.47), ('cur0', 0.0), ('cur1', 0.0), ('cur2', 0.0), ('datetime', '2019-07-12 14:02:00.377093'), ('depth', -0.03), ('flw0', 0), ('flw1', 0), ('flw2', 0), ('flw3', 0), ('lipoC2', 0.0), ('lipoC3S3', 0.0), ('mgs', 0), ('pitch', 99.8), ('roll', 4.21), ('rot0', 0), ('rot1', 0), ('rot2', 0), ('rot3', 0), ('state', 'normal'), ('thr0', 27.0), ('thr1', 27.0), ('thr2', 28.0), ('thr3', 27.0), ('time', 7.02), ('watertemp', 23.47), ('yaw', 0.0)]
[('compass', 7.47), ('cur0', 0.0), ('cur1', 0.0), ('cur2', 0.0), ('datetime', '2019-07-12 14:02:00.594199'), ('depth', -0.03), ('flw0', 0), ('flw1', 0), ('flw2', 0), ('flw3', 0), ('lipoC2', 0.0), ('lipoC3S3', 0.0), ('mgs', 0), ('pitch', 99.8), ('roll', 4.21), ('rot0', 0), ('rot1', 0), ('rot2', 0), ('rot3', 0), ('state', 'normal'), ('thr0', 27.0), ('thr1', 27.0), ('thr2', 28.0), ('thr3', 27.0), ('time', 7.18), ('watertemp', 23.47), ('yaw', 0.0)]
[('compass', 7.47), ('cur0', 0.0), ('cur1', 0.0), ('cur2', 0.0), ('datetime', '2019-07-12 14:02:00.812681'), ('depth', -0.03), ('flw0', 0), ('flw1', 0), ('flw2', 0), ('flw3', 0), ('lipoC2', 0.0), ('lipoC3S3', 0.0), ('mgs', 0), ('pitch', 99.8), ('roll', 4.21), ('rot0', 0), ('rot1', 0), ('rot2', 0), ('rot3', 0), ('state', 'normal'), ('thr0', 27.0), ('thr1', 28.0), ('thr2', 28.0), ('thr3', 27.0), ('time', 7.34), ('watertemp', 23.47), ('yaw', 0.0)]
[('compass', 7.47), ('cur0', 0.0), ('cur1', 0.0), ('cur2', 0.0), ('datetime', '2019-07-12 14:02:01.029848'), ('depth', -0.03), ('flw0', 0), ('flw1', 0), ('flw2', 0), ('flw3', 0), ('lipoC2', 0.0), ('lipoC3S3', 0.0), ('mgs', 0), ('pitch', 99.8), ('roll', 4.21), ('rot0', 0), ('rot1', 0), ('rot2', 0), ('rot3', 0), ('state', 'normal'), ('thr0', 27.0), ('thr1', 27.0), ('thr2', 27.0), ('thr3', 27.0), ('time', 7.5), ('watertemp', 23.47), ('yaw', 0.0)]
[('compass', 7.47), ('cur0', 0.0), ('cur1', 0.0), ('cur2', 0.0), ('datetime', '2019-07-12 14:02:01.246963'), ('depth', -0.03), ('flw0', 0), ('flw1', 0), ('flw2', 0), ('flw3', 0), ('lipoC2', 0.0), ('lipoC3S3', 0.0), ('mgs', 0), ('pitch', 99.8), ('roll', 4.21), ('rot0', 0), ('rot1', 0), ('rot2', 0), ('rot3', 0), ('state', 'normal'), ('thr0', 27.0), ('thr1', 27.0), ('thr2', 27.0), ('thr3', 27.0), ('time', 7.66), ('watertemp', 23.47), ('yaw', 0.0)]
[('compass', 7.47), ('cur0', 0.0), ('cur1', 0.0), ('cur2', 0.0), ('datetime', '2019-07-12 14:02:01.464090'), ('depth', -0.03), ('flw0', 0), ('flw1', 0), ('flw2', 0), ('flw3', 0), ('lipoC2', 0.0), ('lipoC3S3', 0.0), ('mgs', 0), ('pitch', 99.8), ('roll', 4.21), ('rot0', 0), ('rot1', 0), ('rot2', 0), ('rot3', 0), ('state', 'normal'), ('thr0', 27.0), ('thr1', 27.0), ('thr2', 28.0), ('thr3', 27.0), ('time', 7.82), ('watertemp', 23.47), ('yaw', 0.0)]
[('compass', 7.47), ('cur0', 0.0), ('cur1', 0.0), ('cur2', 0.0), ('datetime', '2019-07-12 14:02:01.681222'), ('depth', -0.03), ('flw0', 0), ('flw1', 0), ('flw2', 0), ('flw3', 0), ('lipoC2', 0.0), ('lipoC3S3', 0.0), ('mgs', 0), ('pitch', 99.8), ('roll', 4.21), ('rot0', 0), ('rot1', 0), ('rot2', 0), ('rot3', 0), ('state', 'normal'), ('thr0', 27.0), ('thr1', 27.0), ('thr2', 28.0), ('thr3', 27.0), ('time', 7.98), ('watertemp', 23.47), ('yaw', 0.0)]
[('compass', 7.47), ('cur0', 0.0), ('cur1', 0.0), ('cur2', 0.0), ('datetime', '2019-07-12 14:02:01.898359'), ('depth', -0.03), ('flw0', 0), ('flw1', 0), ('flw2', 0), ('flw3', 0), ('lipoC2', 0.0), ('lipoC3S3', 0.0), ('mgs', 0), ('pitch', 99.8), ('roll', 4.21), ('rot0', 0), ('rot1', 0), ('rot2', 0), ('rot3', 0), ('state', 'normal'), ('thr0', 27.0), ('thr1', 27.0), ('thr2', 28.0), ('thr3', 27.0), ('time', 8.14), ('watertemp', 23.47), ('yaw', 0.0)]
[('compass', 7.47), ('cur0', 0.0), ('cur1', 0.0), ('cur2', 0.0), ('datetime', '2019-07-12 14:02:02.115482'), ('depth', -0.03), ('flw0', 0), ('flw1', 0), ('flw2', 0), ('flw3', 0), ('lipoC2', 0.0), ('lipoC3S3', 0.0), ('mgs', 0), ('pitch', 99.8), ('roll', 4.21), ('rot0', 0), ('rot1', 0), ('rot2', 0), ('rot3', 0), ('state', 'normal'), ('thr0', 27.0), ('thr1', 28.0), ('thr2', 27.0), ('thr3', 28.0), ('time', 8.3), ('watertemp', 23.47), ('yaw', 0.0)]
[('compass', 7.47), ('cur0', 0.0), ('cur1', 0.0), ('cur2', 0.0), ('datetime', '2019-07-12 14:02:02.332613'), ('depth', -0.03), ('flw0', 0), ('flw1', 0), ('flw2', 0), ('flw3', 0), ('lipoC2', 0.0), ('lipoC3S3', 0.0), ('mgs', 0), ('pitch', 99.8), ('roll', 4.21), ('rot0', 0), ('rot1', 0), ('rot2', 0), ('rot3', 0), ('state', 'normal'), ('thr0', 27.0), ('thr1', 27.0), ('thr2', 28.0), ('thr3', 27.0), ('time', 8.47), ('watertemp', 23.47), ('yaw', 0.0)]
[('compass', 7.47), ('cur0', 0.0), ('cur1', 0.0), ('cur2', 0.0), ('datetime', '2019-07-12 14:02:02.549694'), ('depth', -0.03), ('flw0', 0), ('flw1', 0), ('flw2', 0), ('flw3', 0), ('lipoC2', 0.0), ('lipoC3S3', 0.0), ('mgs', 0), ('pitch', 99.8), ('roll', 4.21), ('rot0', 0), ('rot1', 0), ('rot2', 0), ('rot3', 0), ('state', 'normal'), ('thr0', 27.0), ('thr1', 27.0), ('thr2', 28.0), ('thr3', 28.0), ('time', 8.63), ('watertemp', 23.47), ('yaw', 0.0)]
[('compass', 7.47), ('cur0', 0.0), ('cur1', 0.0), ('cur2', 0.0), ('datetime', '2019-07-12 14:02:02.766787'), ('depth', -0.03), ('flw0', 0), ('flw1', 0), ('flw2', 0), ('flw3', 0), ('lipoC2', 0.0), ('lipoC3S3', 0.0), ('mgs', 0), ('pitch', 99.8), ('roll', 4.21), ('rot0', 0), ('rot1', 0), ('rot2', 0), ('rot3', 0), ('state', 'normal'), ('thr0', 27.0), ('thr1', 27.0), ('thr2', 28.0), ('thr3', 27.0), ('time', 8.79), ('watertemp', 23.47), ('yaw', 0.0)]
[('compass', 7.47), ('cur0', 0.0), ('cur1', 0.0), ('cur2', 0.0), ('datetime', '2019-07-12 14:02:02.983855'), ('depth', -0.03), ('flw0', 0), ('flw1', 0), ('flw2', 0), ('flw3', 0), ('lipoC2', 0.0), ('lipoC3S3', 0.0), ('mgs', 0), ('pitch', 99.8), ('roll', 4.21), ('rot0', 0), ('rot1', 0), ('rot2', 0), ('rot3', 0), ('state', 'normal'), ('thr0', 27.0), ('thr1', 27.0), ('thr2', 28.0), ('thr3', 27.0), ('time', 8.95), ('watertemp', 23.47), ('yaw', 0.0)]
[('compass', 7.47), ('cur0', 0.0), ('cur1', 0.0), ('cur2', 0.0), ('datetime', '2019-07-12 14:02:03.201014'), ('depth', -0.03), ('flw0', 0), ('flw1', 0), ('flw2', 0), ('flw3', 0), ('lipoC2', 0.0), ('lipoC3S3', 0.0), ('mgs', 0), ('pitch', 99.8), ('roll', 4.21), ('rot0', 0), ('rot1', 0), ('rot2', 0), ('rot3', 0), ('state', 'normal'), ('thr0', 27.0), ('thr1', 28.0), ('thr2', 28.0), ('thr3', 27.0), ('time', 9.11), ('watertemp', 23.47), ('yaw', 0.0)]
[('compass', 7.47), ('cur0', 0.0), ('cur1', 0.0), ('cur2', 0.0), ('datetime', '2019-07-12 14:02:03.418077'), ('depth', -0.03), ('flw0', 0), ('flw1', 0), ('flw2', 0), ('flw3', 0), ('lipoC2', 0.0), ('lipoC3S3', 0.0), ('mgs', 0), ('pitch', 99.8), ('roll', 4.21), ('rot0', 0), ('rot1', 0), ('rot2', 0), ('rot3', 0), ('state', 'normal'), ('thr0', 27.0), ('thr1', 27.0), ('thr2', 27.0), ('thr3', 28.0), ('time', 9.27), ('watertemp', 23.47), ('yaw', 0.0)]
[('compass', 7.47), ('cur0', 0.0), ('cur1', 0.0), ('cur2', 0.0), ('datetime', '2019-07-12 14:02:03.635227'), ('depth', -0.03), ('flw0', 0), ('flw1', 0), ('flw2', 0), ('flw3', 0), ('lipoC2', 0.0), ('lipoC3S3', 0.0), ('mgs', 0), ('pitch', 99.8), ('roll', 4.21), ('rot0', 0), ('rot1', 0), ('rot2', 0), ('rot3', 0), ('state', 'normal'), ('thr0', 27.0), ('thr1', 27.0), ('thr2', 28.0), ('thr3', 27.0), ('time', 9.43), ('watertemp', 23.47), ('yaw', 0.0)]
[('compass', 7.47), ('cur0', 0.0), ('cur1', 0.0), ('cur2', 0.0), ('datetime', '2019-07-12 14:02:03.852306'), ('depth', -0.03), ('flw0', 0), ('flw1', 0), ('flw2', 0), ('flw3', 0), ('lipoC2', 0.0), ('lipoC3S3', 0.0), ('mgs', 0), ('pitch', 99.8), ('roll', 4.21), ('rot0', 0), ('rot1', 0), ('rot2', 0), ('rot3', 0), ('state', 'normal'), ('thr0', 27.0), ('thr1', 27.0), ('thr2', 28.0), ('thr3', 27.0), ('time', 9.59), ('watertemp', 23.47), ('yaw', 0.0)]
[('compass', 7.47), ('cur0', 0.0), ('cur1', 0.0), ('cur2', 0.0), ('datetime', '2019-07-12 14:02:04.069448'), ('depth', -0.03), ('flw0', 0), ('flw1', 0), ('flw2', 0), ('flw3', 0), ('lipoC2', 0.0), ('lipoC3S3', 0.0), ('mgs', 0), ('pitch', 99.8), ('roll', 4.21), ('rot0', 0), ('rot1', 0), ('rot2', 0), ('rot3', 0), ('state', 'normal'), ('thr0', 27.0), ('thr1', 27.0), ('thr2', 28.0), ('thr3', 27.0), ('time', 9.75), ('watertemp', 23.47), ('yaw', 0.0)]
[('compass', 7.47), ('cur0', 0.0), ('cur1', 0.0), ('cur2', 0.0), ('datetime', '2019-07-12 14:02:04.286558'), ('depth', -0.03), ('flw0', 0), ('flw1', 0), ('flw2', 0), ('flw3', 0), ('lipoC2', 0.0), ('lipoC3S3', 0.0), ('mgs', 0), ('pitch', 99.8), ('roll', 4.21), ('rot0', 0), ('rot1', 0), ('rot2', 0), ('rot3', 0), ('state', 'normal'), ('thr0', 27.0), ('thr1', 27.0), ('thr2', 28.0), ('thr3', 27.0), ('time', 9.91), ('watertemp', 23.46), ('yaw', 0.0)]
[('compass', 7.47), ('cur0', 0.0), ('cur1', 0.0), ('cur2', 0.0), ('datetime', '2019-07-12 14:02:04.503762'), ('depth', -0.03), ('flw0', 0), ('flw1', 0), ('flw2', 0), ('flw3', 0), ('lipoC2', 0.0), ('lipoC3S3', 0.0), ('mgs', 0), ('pitch', 99.8), ('roll', 4.21), ('rot0', 0), ('rot1', 0), ('rot2', 0), ('rot3', 0), ('state', 'normal'), ('thr0', 27.0), ('thr1', 27.0), ('thr2', 28.0), ('thr3', 27.0), ('time', 10.07), ('watertemp', 23.47), ('yaw', 0.0)]
[('compass', 7.47), ('cur0', 0.0), ('cur1', 0.0), ('cur2', 0.0), ('datetime', '2019-07-12 14:02:04.722181'), ('depth', -0.03), ('flw0', 0), ('flw1', 0), ('flw2', 0), ('flw3', 0), ('lipoC2', 0.0), ('lipoC3S3', 0.0), ('mgs', 0), ('pitch', 99.8), ('roll', 4.21), ('rot0', 0), ('rot1', 0), ('rot2', 0), ('rot3', 0), ('state', 'normal'), ('thr0', 27.0), ('thr1', 27.0), ('thr2', 27.0), ('thr3', 27.0), ('time', 10.23), ('watertemp', 23.47), ('yaw', 0.0)]
[('compass', 7.47), ('cur0', 0.0), ('cur1', 0.0), ('cur2', 0.0), ('datetime', '2019-07-12 14:02:04.939375'), ('depth', -0.03), ('flw0', 0), ('flw1', 0), ('flw2', 0), ('flw3', 0), ('lipoC2', 0.0), ('lipoC3S3', 0.0), ('mgs', 0), ('pitch', 99.8), ('roll', 4.21), ('rot0', 0), ('rot1', 0), ('rot2', 0), ('rot3', 0), ('state', 'normal'), ('thr0', 27.0), ('thr1', 27.0), ('thr2', 28.0), ('thr3', 27.0), ('time', 10.39), ('watertemp', 23.47), ('yaw', 0.0)]
[('compass', 7.47), ('cur0', 0.0), ('cur1', 0.0), ('cur2', 0.0), ('datetime', '2019-07-12 14:02:05.156488'), ('depth', -0.03), ('flw0', 0), ('flw1', 0), ('flw2', 0), ('flw3', 0), ('lipoC2', 0.0), ('lipoC3S3', 0.0), ('mgs', 0), ('pitch', 99.8), ('roll', 4.21), ('rot0', 0), ('rot1', 0), ('rot2', 0), ('rot3', 0), ('state', 'normal'), ('thr0', 27.0), ('thr1', 27.0), ('thr2', 28.0), ('thr3', 27.0), ('time', 10.55), ('watertemp', 23.47), ('yaw', 0.0)]
[('compass', 7.47), ('cur0', 0.0), ('cur1', 0.0), ('cur2', 0.0), ('datetime', '2019-07-12 14:02:05.373603'), ('depth', -0.03), ('flw0', 0), ('flw1', 0), ('flw2', 0), ('flw3', 0), ('lipoC2', 0.0), ('lipoC3S3', 0.0), ('mgs', 0), ('pitch', 99.8), ('roll', 4.21), ('rot0', 0), ('rot1', 0), ('rot2', 0), ('rot3', 0), ('state', 'normal'), ('thr0', 27.0), ('thr1', 27.0), ('thr2', 28.0), ('thr3', 27.0), ('time', 10.72), ('watertemp', 23.47), ('yaw', 0.0)]
[('compass', 7.47), ('cur0', 0.0), ('cur1', 0.0), ('cur2', 0.0), ('datetime', '2019-07-12 14:02:05.590683'), ('depth', -0.03), ('flw0', 0), ('flw1', 0), ('flw2', 0), ('flw3', 0), ('lipoC2', 0.0), ('lipoC3S3', 0.0), ('mgs', 0), ('pitch', 99.8), ('roll', 4.21), ('rot0', 0), ('rot1', 0), ('rot2', 0), ('rot3', 0), ('state', 'normal'), ('thr0', 27.0), ('thr1', 27.0), ('thr2', 27.0), ('thr3', 27.0), ('time', 10.88), ('watertemp', 23.47), ('yaw', 0.0)]
[('compass', 7.47), ('cur0', 0.0), ('cur1', 0.0), ('cur2', 0.0), ('datetime', '2019-07-12 14:02:05.807814'), ('depth', -0.03), ('flw0', 0), ('flw1', 0), ('flw2', 0), ('flw3', 0), ('lipoC2', 0.0), ('lipoC3S3', 0.0), ('mgs', 0), ('pitch', 99.8), ('roll', 4.21), ('rot0', 0), ('rot1', 0), ('rot2', 0), ('rot3', 0), ('state', 'normal'), ('thr0', 27.0), ('thr1', 27.0), ('thr2', 28.0), ('thr3', 27.0), ('time', 11.04), ('watertemp', 23.47), ('yaw', 0.0)]
[('compass', 7.47), ('cur0', 0.0), ('cur1', 0.0), ('cur2', 0.0), ('datetime', '2019-07-12 14:02:06.024942'), ('depth', -0.03), ('flw0', 0), ('flw1', 0), ('flw2', 0), ('flw3', 0), ('lipoC2', 0.0), ('lipoC3S3', 0.0), ('mgs', 0), ('pitch', 99.8), ('roll', 4.21), ('rot0', 0), ('rot1', 0), ('rot2', 0), ('rot3', 0), ('state', 'normal'), ('thr0', 27.0), ('thr1', 27.0), ('thr2', 28.0), ('thr3', 27.0), ('time', 11.2), ('watertemp', 23.47), ('yaw', 0.0)]
[('compass', 7.47), ('cur0', 0.0), ('cur1', 0.0), ('cur2', 0.0), ('datetime', '2019-07-12 14:02:06.242116'), ('depth', -0.03), ('flw0', 0), ('flw1', 0), ('flw2', 0), ('flw3', 0), ('lipoC2', 0.0), ('lipoC3S3', 0.0), ('mgs', 0), ('pitch', 99.8), ('roll', 4.21), ('rot0', 0), ('rot1', 0), ('rot2', 0), ('rot3', 0), ('state', 'normal'), ('thr0', 27.0), ('thr1', 27.0), ('thr2', 27.0), ('thr3', 28.0), ('time', 11.36), ('watertemp', 23.47), ('yaw', 0.0)]
[('compass', 7.47), ('cur0', 0.0), ('cur1', 0.0), ('cur2', 0.0), ('datetime', '2019-07-12 14:02:06.459175'), ('depth', -0.02), ('flw0', 0), ('flw1', 0), ('flw2', 0), ('flw3', 0), ('lipoC2', 0.0), ('lipoC3S3', 0.0), ('mgs', 0), ('pitch', 99.8), ('roll', 4.21), ('rot0', 0), ('rot1', 0), ('rot2', 0), ('rot3', 0), ('state', 'normal'), ('thr0', 27.0), ('thr1', 27.0), ('thr2', 27.0), ('thr3', 27.0), ('time', 11.52), ('watertemp', 23.47), ('yaw', 0.0)]
[('compass', 7.47), ('cur0', 0.0), ('cur1', 0.0), ('cur2', 0.0), ('datetime', '2019-07-12 14:02:06.676411'), ('depth', -0.03), ('flw0', 0), ('flw1', 0), ('flw2', 0), ('flw3', 0), ('lipoC2', 0.0), ('lipoC3S3', 0.0), ('mgs', 0), ('pitch', 99.8), ('roll', 4.21), ('rot0', 0), ('rot1', 0), ('rot2', 0), ('rot3', 0), ('state', 'normal'), ('thr0', 27.0), ('thr1', 27.0), ('thr2', 27.0), ('thr3', 27.0), ('time', 11.68), ('watertemp', 23.46), ('yaw', 0.0)]
[('compass', 7.47), ('cur0', 0.0), ('cur1', 0.0), ('cur2', 0.0), ('datetime', '2019-07-12 14:02:06.893500'), ('depth', -0.03), ('flw0', 0), ('flw1', 0), ('flw2', 0), ('flw3', 0), ('lipoC2', 0.0), ('lipoC3S3', 0.0), ('mgs', 0), ('pitch', 99.8), ('roll', 4.21), ('rot0', 0), ('rot1', 0), ('rot2', 0), ('rot3', 0), ('state', 'normal'), ('thr0', 27.0), ('thr1', 27.0), ('thr2', 28.0), ('thr3', 27.0), ('time', 11.84), ('watertemp', 23.46), ('yaw', 0.0)]
[('compass', 7.47), ('cur0', 0.0), ('cur1', 0.0), ('cur2', 0.0), ('datetime', '2019-07-12 14:02:07.110650'), ('depth', -0.03), ('flw0', 0), ('flw1', 0), ('flw2', 0), ('flw3', 0), ('lipoC2', 0.0), ('lipoC3S3', 0.0), ('mgs', 0), ('pitch', 99.8), ('roll', 4.21), ('rot0', 0), ('rot1', 0), ('rot2', 0), ('rot3', 0), ('state', 'normal'), ('thr0', 27.0), ('thr1', 27.0), ('thr2', 27.0), ('thr3', 27.0), ('time', 12.0), ('watertemp', 23.47), ('yaw', 0.0)]
[('compass', 7.47), ('cur0', 0.0), ('cur1', 0.0), ('cur2', 0.0), ('datetime', '2019-07-12 14:02:07.327717'), ('depth', -0.03), ('flw0', 0), ('flw1', 0), ('flw2', 0), ('flw3', 0), ('lipoC2', 0.0), ('lipoC3S3', 0.0), ('mgs', 0), ('pitch', 99.8), ('roll', 4.21), ('rot0', 0), ('rot1', 0), ('rot2', 0), ('rot3', 0), ('state', 'normal'), ('thr0', 27.0), ('thr1', 27.0), ('thr2', 28.0), ('thr3', 27.0), ('time', 12.16), ('watertemp', 23.46), ('yaw', 0.0)]
[('compass', 7.47), ('cur0', 0.0), ('cur1', 0.0), ('cur2', 0.0), ('datetime', '2019-07-12 14:02:07.544883'), ('depth', -0.03), ('flw0', 0), ('flw1', 0), ('flw2', 0), ('flw3', 0), ('lipoC2', 0.0), ('lipoC3S3', 0.0), ('mgs', 0), ('pitch', 99.8), ('roll', 4.21), ('rot0', 0), ('rot1', 0), ('rot2', 0), ('rot3', 0), ('state', 'normal'), ('thr0', 27.0), ('thr1', 27.0), ('thr2', 28.0), ('thr3', 27.0), ('time', 12.32), ('watertemp', 23.46), ('yaw', 0.0)]
[('compass', 7.47), ('cur0', 0.0), ('cur1', 0.0), ('cur2', 0.0), ('datetime', '2019-07-12 14:02:07.761983'), ('depth', -0.03), ('flw0', 0), ('flw1', 0), ('flw2', 0), ('flw3', 0), ('lipoC2', 0.0), ('lipoC3S3', 0.0), ('mgs', 0), ('pitch', 99.8), ('roll', 4.21), ('rot0', 0), ('rot1', 0), ('rot2', 0), ('rot3', 0), ('state', 'normal'), ('thr0', 27.0), ('thr1', 28.0), ('thr2', 28.0), ('thr3', 27.0), ('time', 12.48), ('watertemp', 23.46), ('yaw', 0.0)]
[('compass', 7.47), ('cur0', 0.0), ('cur1', 0.0), ('cur2', 0.0), ('datetime', '2019-07-12 14:02:07.979172'), ('depth', -0.03), ('flw0', 0), ('flw1', 0), ('flw2', 0), ('flw3', 0), ('lipoC2', 0.0), ('lipoC3S3', 0.0), ('mgs', 0), ('pitch', 99.8), ('roll', 4.21), ('rot0', 0), ('rot1', 0), ('rot2', 0), ('rot3', 0), ('state', 'normal'), ('thr0', 27.0), ('thr1', 27.0), ('thr2', 28.0), ('thr3', 27.0), ('time', 12.64), ('watertemp', 23.46), ('yaw', 0.0)]
[('compass', 7.47), ('cur0', 0.0), ('cur1', 0.0), ('cur2', 0.0), ('datetime', '2019-07-12 14:02:08.196264'), ('depth', -0.03), ('flw0', 0), ('flw1', 0), ('flw2', 0), ('flw3', 0), ('lipoC2', 0.0), ('lipoC3S3', 0.0), ('mgs', 0), ('pitch', 99.8), ('roll', 4.21), ('rot0', 0), ('rot1', 0), ('rot2', 0), ('rot3', 0), ('state', 'normal'), ('thr0', 27.0), ('thr1', 27.0), ('thr2', 28.0), ('thr3', 27.0), ('time', 12.8), ('watertemp', 23.46), ('yaw', 0.0)]
[('compass', 7.47), ('cur0', 0.0), ('cur1', 0.0), ('cur2', 0.0), ('datetime', '2019-07-12 14:02:08.413425'), ('depth', -0.03), ('flw0', 0), ('flw1', 0), ('flw2', 0), ('flw3', 0), ('lipoC2', 0.0), ('lipoC3S3', 0.0), ('mgs', 0), ('pitch', 99.8), ('roll', 4.21), ('rot0', 0), ('rot1', 0), ('rot2', 0), ('rot3', 0), ('state', 'normal'), ('thr0', 27.0), ('thr1', 27.0), ('thr2', 28.0), ('thr3', 27.0), ('time', 12.96), ('watertemp', 23.46), ('yaw', 0.0)]
[('compass', 7.47), ('cur0', 0.0), ('cur1', 0.0), ('cur2', 0.0), ('datetime', '2019-07-12 14:02:08.631790'), ('depth', -0.03), ('flw0', 0), ('flw1', 0), ('flw2', 0), ('flw3', 0), ('lipoC2', 0.0), ('lipoC3S3', 0.0), ('mgs', 0), ('pitch', 99.8), ('roll', 4.21), ('rot0', 0), ('rot1', 0), ('rot2', 0), ('rot3', 0), ('state', 'normal'), ('thr0', 27.0), ('thr1', 27.0), ('thr2', 27.0), ('thr3', 28.0), ('time', 13.13), ('watertemp', 23.46), ('yaw', 0.0)]
[('compass', 7.47), ('cur0', 0.0), ('cur1', 0.0), ('cur2', 0.0), ('datetime', '2019-07-12 14:02:08.848934'), ('depth', -0.03), ('flw0', 0), ('flw1', 0), ('flw2', 0), ('flw3', 0), ('lipoC2', 0.0), ('lipoC3S3', 0.0), ('mgs', 0), ('pitch', 99.8), ('roll', 4.21), ('rot0', 0), ('rot1', 0), ('rot2', 0), ('rot3', 0), ('state', 'normal'), ('thr0', 27.0), ('thr1', 28.0), ('thr2', 28.0), ('thr3', 27.0), ('time', 13.29), ('watertemp', 23.47), ('yaw', 0.0)]
[('compass', 7.47), ('cur0', 0.0), ('cur1', 0.0), ('cur2', 0.0), ('datetime', '2019-07-12 14:02:09.066014'), ('depth', -0.03), ('flw0', 0), ('flw1', 0), ('flw2', 0), ('flw3', 0), ('lipoC2', 0.0), ('lipoC3S3', 0.0), ('mgs', 0), ('pitch', 99.8), ('roll', 4.21), ('rot0', 0), ('rot1', 0), ('rot2', 0), ('rot3', 0), ('state', 'normal'), ('thr0', 27.0), ('thr1', 27.0), ('thr2', 28.0), ('thr3', 27.0), ('time', 13.45), ('watertemp', 23.46), ('yaw', 0.0)]
[('compass', 7.47), ('cur0', 0.0), ('cur1', 0.0), ('cur2', 0.0), ('datetime', '2019-07-12 14:02:09.283226'), ('depth', -0.03), ('flw0', 0), ('flw1', 0), ('flw2', 0), ('flw3', 0), ('lipoC2', 0.0), ('lipoC3S3', 0.0), ('mgs', 0), ('pitch', 99.8), ('roll', 4.21), ('rot0', 0), ('rot1', 0), ('rot2', 0), ('rot3', 0), ('state', 'normal'), ('thr0', 27.0), ('thr1', 28.0), ('thr2', 28.0), ('thr3', 27.0), ('time', 13.61), ('watertemp', 23.46), ('yaw', 0.0)]
[('compass', 7.47), ('cur0', 0.0), ('cur1', 0.0), ('cur2', 0.0), ('datetime', '2019-07-12 14:02:09.500311'), ('depth', -0.03), ('flw0', 0), ('flw1', 0), ('flw2', 0), ('flw3', 0), ('lipoC2', 0.0), ('lipoC3S3', 0.0), ('mgs', 0), ('pitch', 99.8), ('roll', 4.21), ('rot0', 0), ('rot1', 0), ('rot2', 0), ('rot3', 0), ('state', 'normal'), ('thr0', 27.0), ('thr1', 27.0), ('thr2', 27.0), ('thr3', 27.0), ('time', 13.77), ('watertemp', 23.47), ('yaw', 0.0)]
[('compass', 7.47), ('cur0', 0.0), ('cur1', 0.0), ('cur2', 0.0), ('datetime', '2019-07-12 14:02:09.717440'), ('depth', -0.03), ('flw0', 0), ('flw1', 0), ('flw2', 0), ('flw3', 0), ('lipoC2', 0.0), ('lipoC3S3', 0.0), ('mgs', 0), ('pitch', 99.8), ('roll', 4.21), ('rot0', 0), ('rot1', 0), ('rot2', 0), ('rot3', 0), ('state', 'normal'), ('thr0', 27.0), ('thr1', 27.0), ('thr2', 27.0), ('thr3', 27.0), ('time', 13.93), ('watertemp', 23.46), ('yaw', 0.0)]
[('compass', 7.47), ('cur0', 0.0), ('cur1', 0.0), ('cur2', 0.0), ('datetime', '2019-07-12 14:02:09.934576'), ('depth', -0.03), ('flw0', 0), ('flw1', 0), ('flw2', 0), ('flw3', 0), ('lipoC2', 0.0), ('lipoC3S3', 0.0), ('mgs', 0), ('pitch', 99.8), ('roll', 4.21), ('rot0', 0), ('rot1', 0), ('rot2', 0), ('rot3', 0), ('state', 'normal'), ('thr0', 27.0), ('thr1', 27.0), ('thr2', 28.0), ('thr3', 27.0), ('time', 14.09), ('watertemp', 23.47), ('yaw', 0.0)]
[('compass', 7.47), ('cur0', 0.0), ('cur1', 0.0), ('cur2', 0.0), ('datetime', '2019-07-12 14:02:10.151715'), ('depth', -0.03), ('flw0', 0), ('flw1', 0), ('flw2', 0), ('flw3', 0), ('lipoC2', 0.0), ('lipoC3S3', 0.0), ('mgs', 0), ('pitch', 99.8), ('roll', 4.21), ('rot0', 0), ('rot1', 0), ('rot2', 0), ('rot3', 0), ('state', 'normal'), ('thr0', 27.0), ('thr1', 27.0), ('thr2', 28.0), ('thr3', 27.0), ('time', 14.25), ('watertemp', 23.46), ('yaw', 0.0)]
[('compass', 7.47), ('cur0', 0.0), ('cur1', 0.0), ('cur2', 0.0), ('datetime', '2019-07-12 14:02:10.368859'), ('depth', -0.03), ('flw0', 0), ('flw1', 0), ('flw2', 0), ('flw3', 0), ('lipoC2', 0.0), ('lipoC3S3', 0.0), ('mgs', 0), ('pitch', 99.8), ('roll', 4.21), ('rot0', 0), ('rot1', 0), ('rot2', 0), ('rot3', 0), ('state', 'normal'), ('thr0', 27.0), ('thr1', 27.0), ('thr2', 28.0), ('thr3', 27.0), ('time', 14.41), ('watertemp', 23.46), ('yaw', 0.0)]
[('compass', 7.47), ('cur0', 0.0), ('cur1', 0.0), ('cur2', 0.0), ('datetime', '2019-07-12 14:02:10.586048'), ('depth', -0.03), ('flw0', 0), ('flw1', 0), ('flw2', 0), ('flw3', 0), ('lipoC2', 0.0), ('lipoC3S3', 0.0), ('mgs', 0), ('pitch', 99.8), ('roll', 4.21), ('rot0', 0), ('rot1', 0), ('rot2', 0), ('rot3', 0), ('state', 'normal'), ('thr0', 27.0), ('thr1', 27.0), ('thr2', 27.0), ('thr3', 28.0), ('time', 14.57), ('watertemp', 23.46), ('yaw', 0.0)]
[('compass', 7.47), ('cur0', 0.0), ('cur1', 0.0), ('cur2', 0.0), ('datetime', '2019-07-12 14:02:10.803114'), ('depth', -0.03), ('flw0', 0), ('flw1', 0), ('flw2', 0), ('flw3', 0), ('lipoC2', 0.0), ('lipoC3S3', 0.0), ('mgs', 0), ('pitch', 99.8), ('roll', 4.21), ('rot0', 0), ('rot1', 0), ('rot2', 0), ('rot3', 0), ('state', 'normal'), ('thr0', 27.0), ('thr1', 27.0), ('thr2', 28.0), ('thr3', 27.0), ('time', 14.73), ('watertemp', 23.46), ('yaw', 0.0)]
[('compass', 7.47), ('cur0', 0.0), ('cur1', 0.0), ('cur2', 0.0), ('datetime', '2019-07-12 14:02:11.020288'), ('depth', -0.03), ('flw0', 0), ('flw1', 0), ('flw2', 0), ('flw3', 0), ('lipoC2', 0.0), ('lipoC3S3', 0.0), ('mgs', 0), ('pitch', 99.8), ('roll', 4.21), ('rot0', 0), ('rot1', 0), ('rot2', 0), ('rot3', 0), ('state', 'normal'), ('thr0', 27.0), ('thr1', 27.0), ('thr2', 27.0), ('thr3', 27.0), ('time', 14.89), ('watertemp', 23.46), ('yaw', 0.0)]
[('compass', 7.47), ('cur0', 0.0), ('cur1', 0.0), ('cur2', 0.0), ('datetime', '2019-07-12 14:02:11.237511'), ('depth', -0.03), ('flw0', 0), ('flw1', 0), ('flw2', 0), ('flw3', 0), ('lipoC2', 0.0), ('lipoC3S3', 0.0), ('mgs', 0), ('pitch', 99.8), ('roll', 4.21), ('rot0', 0), ('rot1', 0), ('rot2', 0), ('rot3', 0), ('state', 'normal'), ('thr0', 27.0), ('thr1', 27.0), ('thr2', 28.0), ('thr3', 27.0), ('time', 15.05), ('watertemp', 23.46), ('yaw', 0.0)]
[('compass', 7.47), ('cur0', 0.0), ('cur1', 0.0), ('cur2', 0.0), ('datetime', '2019-07-12 14:02:11.454636'), ('depth', -0.03), ('flw0', 0), ('flw1', 0), ('flw2', 0), ('flw3', 0), ('lipoC2', 0.0), ('lipoC3S3', 0.0), ('mgs', 0), ('pitch', 99.8), ('roll', 4.21), ('rot0', 0), ('rot1', 0), ('rot2', 0), ('rot3', 0), ('state', 'normal'), ('thr0', 27.0), ('thr1', 27.0), ('thr2', 28.0), ('thr3', 27.0), ('time', 15.22), ('watertemp', 23.46), ('yaw', 0.0)]
[('compass', 7.47), ('cur0', 0.0), ('cur1', 0.0), ('cur2', 0.0), ('datetime', '2019-07-12 14:02:11.671714'), ('depth', -0.03), ('flw0', 0), ('flw1', 0), ('flw2', 0), ('flw3', 0), ('lipoC2', 0.0), ('lipoC3S3', 0.0), ('mgs', 0), ('pitch', 99.8), ('roll', 4.21), ('rot0', 0), ('rot1', 0), ('rot2', 0), ('rot3', 0), ('state', 'normal'), ('thr0', 27.0), ('thr1', 28.0), ('thr2', 28.0), ('thr3', 27.0), ('time', 15.38), ('watertemp', 23.46), ('yaw', 0.0)]
[('compass', 7.47), ('cur0', 0.0), ('cur1', 0.0), ('cur2', 0.0), ('datetime', '2019-07-12 14:02:11.888915'), ('depth', -0.03), ('flw0', 0), ('flw1', 0), ('flw2', 0), ('flw3', 0), ('lipoC2', 0.0), ('lipoC3S3', 0.0), ('mgs', 0), ('pitch', 99.8), ('roll', 4.21), ('rot0', 0), ('rot1', 0), ('rot2', 0), ('rot3', 0), ('state', 'normal'), ('thr0', 27.0), ('thr1', 27.0), ('thr2', 27.0), ('thr3', 28.0), ('time', 15.54), ('watertemp', 23.46), ('yaw', 0.0)]
[('compass', 7.47), ('cur0', 0.0), ('cur1', 0.0), ('cur2', 0.0), ('datetime', '2019-07-12 14:02:12.106038'), ('depth', -0.03), ('flw0', 0), ('flw1', 0), ('flw2', 0), ('flw3', 0), ('lipoC2', 0.0), ('lipoC3S3', 0.0), ('mgs', 0), ('pitch', 99.8), ('roll', 4.21), ('rot0', 0), ('rot1', 0), ('rot2', 0), ('rot3', 0), ('state', 'normal'), ('thr0', 27.0), ('thr1', 27.0), ('thr2', 27.0), ('thr3', 27.0), ('time', 15.7), ('watertemp', 23.46), ('yaw', 0.0)]
[('compass', 7.47), ('cur0', 0.0), ('cur1', 0.0), ('cur2', 0.0), ('datetime', '2019-07-12 14:02:12.323184'), ('depth', -0.02), ('flw0', 0), ('flw1', 0), ('flw2', 0), ('flw3', 0), ('lipoC2', 0.0), ('lipoC3S3', 0.0), ('mgs', 0), ('pitch', 99.8), ('roll', 4.21), ('rot0', 0), ('rot1', 0), ('rot2', 0), ('rot3', 0), ('state', 'normal'), ('thr0', 27.0), ('thr1', 27.0), ('thr2', 28.0), ('thr3', 27.0), ('time', 15.86), ('watertemp', 23.46), ('yaw', 0.0)]
[('compass', 7.47), ('cur0', 0.0), ('cur1', 0.0), ('cur2', 0.0), ('datetime', '2019-07-12 14:02:12.540290'), ('depth', -0.03), ('flw0', 0), ('flw1', 0), ('flw2', 0), ('flw3', 0), ('lipoC2', 0.0), ('lipoC3S3', 0.0), ('mgs', 0), ('pitch', 99.8), ('roll', 4.21), ('rot0', 0), ('rot1', 0), ('rot2', 0), ('rot3', 0), ('state', 'normal'), ('thr0', 27.0), ('thr1', 27.0), ('thr2', 28.0), ('thr3', 28.0), ('time', 16.02), ('watertemp', 23.46), ('yaw', 0.0)]
[('compass', 7.47), ('cur0', 0.0), ('cur1', 0.0), ('cur2', 0.0), ('datetime', '2019-07-12 14:02:12.758737'), ('depth', -0.03), ('flw0', 0), ('flw1', 0), ('flw2', 0), ('flw3', 0), ('lipoC2', 0.0), ('lipoC3S3', 0.0), ('mgs', 0), ('pitch', 99.8), ('roll', 4.21), ('rot0', 0), ('rot1', 0), ('rot2', 0), ('rot3', 0), ('state', 'normal'), ('thr0', 27.0), ('thr1', 27.0), ('thr2', 27.0), ('thr3', 28.0), ('time', 16.18), ('watertemp', 23.46), ('yaw', 0.0)]
[('compass', 7.47), ('cur0', 0.0), ('cur1', 0.0), ('cur2', 0.0), ('datetime', '2019-07-12 14:02:12.975813'), ('depth', -0.03), ('flw0', 0), ('flw1', 0), ('flw2', 0), ('flw3', 0), ('lipoC2', 0.0), ('lipoC3S3', 0.0), ('mgs', 0), ('pitch', 99.8), ('roll', 4.21), ('rot0', 0), ('rot1', 0), ('rot2', 0), ('rot3', 0), ('state', 'normal'), ('thr0', 27.0), ('thr1', 27.0), ('thr2', 28.0), ('thr3', 27.0), ('time', 16.34), ('watertemp', 23.46), ('yaw', 0.0)]
[('compass', 7.47), ('cur0', 0.0), ('cur1', 0.0), ('cur2', 0.0), ('datetime', '2019-07-12 14:02:13.192929'), ('depth', -0.03), ('flw0', 0), ('flw1', 0), ('flw2', 0), ('flw3', 0), ('lipoC2', 0.0), ('lipoC3S3', 0.0), ('mgs', 0), ('pitch', 99.8), ('roll', 4.21), ('rot0', 0), ('rot1', 0), ('rot2', 0), ('rot3', 0), ('state', 'normal'), ('thr0', 27.0), ('thr1', 27.0), ('thr2', 28.0), ('thr3', 27.0), ('time', 16.5), ('watertemp', 23.46), ('yaw', 0.0)]
[('compass', 7.47), ('cur0', 0.0), ('cur1', 0.0), ('cur2', 0.0), ('datetime', '2019-07-12 14:02:13.409997'), ('depth', -0.03), ('flw0', 0), ('flw1', 0), ('flw2', 0), ('flw3', 0), ('lipoC2', 0.0), ('lipoC3S3', 0.0), ('mgs', 0), ('pitch', 99.8), ('roll', 4.21), ('rot0', 0), ('rot1', 0), ('rot2', 0), ('rot3', 0), ('state', 'normal'), ('thr0', 27.0), ('thr1', 28.0), ('thr2', 28.0), ('thr3', 27.0), ('time', 16.66), ('watertemp', 23.46), ('yaw', 0.0)]
[('compass', 7.47), ('cur0', 0.0), ('cur1', 0.0), ('cur2', 0.0), ('datetime', '2019-07-12 14:02:13.627099'), ('depth', -0.03), ('flw0', 0), ('flw1', 0), ('flw2', 0), ('flw3', 0), ('lipoC2', 0.0), ('lipoC3S3', 0.0), ('mgs', 0), ('pitch', 99.8), ('roll', 4.21), ('rot0', 0), ('rot1', 0), ('rot2', 0), ('rot3', 0), ('state', 'normal'), ('thr0', 27.0), ('thr1', 28.0), ('thr2', 27.0), ('thr3', 27.0), ('time', 16.82), ('watertemp', 23.46), ('yaw', 0.0)]
[('compass', 7.47), ('cur0', 0.0), ('cur1', 0.0), ('cur2', 0.0), ('datetime', '2019-07-12 14:02:13.844175'), ('depth', -0.03), ('flw0', 0), ('flw1', 0), ('flw2', 0), ('flw3', 0), ('lipoC2', 0.0), ('lipoC3S3', 0.0), ('mgs', 0), ('pitch', 99.8), ('roll', 4.21), ('rot0', 0), ('rot1', 0), ('rot2', 0), ('rot3', 0), ('state', 'normal'), ('thr0', 27.0), ('thr1', 27.0), ('thr2', 27.0), ('thr3', 27.0), ('time', 16.98), ('watertemp', 23.46), ('yaw', 0.0)]
[('compass', 7.47), ('cur0', 0.0), ('cur1', 0.0), ('cur2', 0.0), ('datetime', '2019-07-12 14:02:14.061321'), ('depth', -0.03), ('flw0', 0), ('flw1', 0), ('flw2', 0), ('flw3', 0), ('lipoC2', 0.0), ('lipoC3S3', 0.0), ('mgs', 0), ('pitch', 99.8), ('roll', 4.21), ('rot0', 0), ('rot1', 0), ('rot2', 0), ('rot3', 0), ('state', 'normal'), ('thr0', 27.0), ('thr1', 27.0), ('thr2', 28.0), ('thr3', 28.0), ('time', 17.14), ('watertemp', 23.46), ('yaw', 0.0)]
[('compass', 7.47), ('cur0', 0.0), ('cur1', 0.0), ('cur2', 0.0), ('datetime', '2019-07-12 14:02:14.278397'), ('depth', -0.03), ('flw0', 0), ('flw1', 0), ('flw2', 0), ('flw3', 0), ('lipoC2', 0.0), ('lipoC3S3', 0.0), ('mgs', 0), ('pitch', 99.8), ('roll', 4.21), ('rot0', 0), ('rot1', 0), ('rot2', 0), ('rot3', 0), ('state', 'normal'), ('thr0', 27.0), ('thr1', 27.0), ('thr2', 27.0), ('thr3', 27.0), ('time', 17.3), ('watertemp', 23.46), ('yaw', 0.0)]
[('compass', 7.47), ('cur0', 0.0), ('cur1', 0.0), ('cur2', 0.0), ('datetime', '2019-07-12 14:02:14.495558'), ('depth', -0.03), ('flw0', 0), ('flw1', 0), ('flw2', 0), ('flw3', 0), ('lipoC2', 0.0), ('lipoC3S3', 0.0), ('mgs', 0), ('pitch', 99.8), ('roll', 4.21), ('rot0', 0), ('rot1', 0), ('rot2', 0), ('rot3', 0), ('state', 'normal'), ('thr0', 27.0), ('thr1', 27.0), ('thr2', 28.0), ('thr3', 27.0), ('time', 17.47), ('watertemp', 23.46), ('yaw', 0.0)]
[('compass', 7.47), ('cur0', 0.0), ('cur1', 0.0), ('cur2', 0.0), ('datetime', '2019-07-12 14:02:14.712607'), ('depth', -0.03), ('flw0', 0), ('flw1', 0), ('flw2', 0), ('flw3', 0), ('lipoC2', 0.0), ('lipoC3S3', 0.0), ('mgs', 0), ('pitch', 99.8), ('roll', 4.21), ('rot0', 0), ('rot1', 0), ('rot2', 0), ('rot3', 0), ('state', 'normal'), ('thr0', 27.0), ('thr1', 27.0), ('thr2', 28.0), ('thr3', 27.0), ('time', 17.63), ('watertemp', 23.46), ('yaw', 0.0)]
[('compass', 7.47), ('cur0', 0.0), ('cur1', 0.0), ('cur2', 0.0), ('datetime', '2019-07-12 14:02:14.929758'), ('depth', -0.03), ('flw0', 0), ('flw1', 0), ('flw2', 0), ('flw3', 0), ('lipoC2', 0.0), ('lipoC3S3', 0.0), ('mgs', 0), ('pitch', 99.8), ('roll', 4.21), ('rot0', 0), ('rot1', 0), ('rot2', 0), ('rot3', 0), ('state', 'normal'), ('thr0', 27.0), ('thr1', 27.0), ('thr2', 28.0), ('thr3', 27.0), ('time', 17.79), ('watertemp', 23.46), ('yaw', 0.0)]
[('compass', 7.47), ('cur0', 0.0), ('cur1', 0.0), ('cur2', 0.0), ('datetime', '2019-07-12 14:02:15.146828'), ('depth', -0.03), ('flw0', 0), ('flw1', 0), ('flw2', 0), ('flw3', 0), ('lipoC2', 0.0), ('lipoC3S3', 0.0), ('mgs', 0), ('pitch', 99.8), ('roll', 4.21), ('rot0', 0), ('rot1', 0), ('rot2', 0), ('rot3', 0), ('state', 'normal'), ('thr0', 27.0), ('thr1', 27.0), ('thr2', 27.0), ('thr3', 28.0), ('time', 17.95), ('watertemp', 23.46), ('yaw', 0.0)]
[('compass', 7.47), ('cur0', 0.0), ('cur1', 0.0), ('cur2', 0.0), ('datetime', '2019-07-12 14:02:15.363937'), ('depth', -0.03), ('flw0', 0), ('flw1', 0), ('flw2', 0), ('flw3', 0), ('lipoC2', 0.0), ('lipoC3S3', 0.0), ('mgs', 0), ('pitch', 99.8), ('roll', 4.21), ('rot0', 0), ('rot1', 0), ('rot2', 0), ('rot3', 0), ('state', 'normal'), ('thr0', 27.0), ('thr1', 27.0), ('thr2', 28.0), ('thr3', 27.0), ('time', 18.11), ('watertemp', 23.46), ('yaw', 0.0)]
[('compass', 7.47), ('cur0', 0.0), ('cur1', 0.0), ('cur2', 0.0), ('datetime', '2019-07-12 14:02:15.581017'), ('depth', -0.03), ('flw0', 0), ('flw1', 0), ('flw2', 0), ('flw3', 0), ('lipoC2', 0.0), ('lipoC3S3', 0.0), ('mgs', 0), ('pitch', 99.8), ('roll', 4.21), ('rot0', 0), ('rot1', 0), ('rot2', 0), ('rot3', 0), ('state', 'normal'), ('thr0', 27.0), ('thr1', 27.0), ('thr2', 27.0), ('thr3', 27.0), ('time', 18.27), ('watertemp', 23.46), ('yaw', 0.0)]
[('compass', 7.47), ('cur0', 0.0), ('cur1', 0.0), ('cur2', 0.0), ('datetime', '2019-07-12 14:02:15.798122'), ('depth', -0.03), ('flw0', 0), ('flw1', 0), ('flw2', 0), ('flw3', 0), ('lipoC2', 0.0), ('lipoC3S3', 0.0), ('mgs', 0), ('pitch', 99.8), ('roll', 4.21), ('rot0', 0), ('rot1', 0), ('rot2', 0), ('rot3', 0), ('state', 'normal'), ('thr0', 27.0), ('thr1', 27.0), ('thr2', 28.0), ('thr3', 27.0), ('time', 18.43), ('watertemp', 23.46), ('yaw', 0.0)]
[('compass', 7.47), ('cur0', 0.0), ('cur1', 0.0), ('cur2', 0.0), ('datetime', '2019-07-12 14:02:16.015232'), ('depth', -0.03), ('flw0', 0), ('flw1', 0), ('flw2', 0), ('flw3', 0), ('lipoC2', 0.0), ('lipoC3S3', 0.0), ('mgs', 0), ('pitch', 99.8), ('roll', 4.21), ('rot0', 0), ('rot1', 0), ('rot2', 0), ('rot3', 0), ('state', 'normal'), ('thr0', 27.0), ('thr1', 27.0), ('thr2', 28.0), ('thr3', 27.0), ('time', 18.59), ('watertemp', 23.46), ('yaw', 0.0)]
[('compass', 7.47), ('cur0', 0.0), ('cur1', 0.0), ('cur2', 0.0), ('datetime', '2019-07-12 14:02:16.232511'), ('depth', -0.03), ('flw0', 0), ('flw1', 0), ('flw2', 0), ('flw3', 0), ('lipoC2', 0.0), ('lipoC3S3', 0.0), ('mgs', 0), ('pitch', 99.8), ('roll', 4.21), ('rot0', 0), ('rot1', 0), ('rot2', 0), ('rot3', 0), ('state', 'normal'), ('thr0', 27.0), ('thr1', 27.0), ('thr2', 28.0), ('thr3', 27.0), ('time', 18.75), ('watertemp', 23.45), ('yaw', 0.0)]
[('compass', 7.47), ('cur0', 0.0), ('cur1', 0.0), ('cur2', 0.0), ('datetime', '2019-07-12 14:02:16.449654'), ('depth', -0.03), ('flw0', 0), ('flw1', 0), ('flw2', 0), ('flw3', 0), ('lipoC2', 0.0), ('lipoC3S3', 0.0), ('mgs', 0), ('pitch', 99.8), ('roll', 4.21), ('rot0', 0), ('rot1', 0), ('rot2', 0), ('rot3', 0), ('state', 'normal'), ('thr0', 27.0), ('thr1', 27.0), ('thr2', 27.0), ('thr3', 27.0), ('time', 18.91), ('watertemp', 23.45), ('yaw', 0.0)]
[('compass', 7.47), ('cur0', 0.0), ('cur1', 0.0), ('cur2', 0.0), ('datetime', '2019-07-12 14:02:16.668175'), ('depth', -0.03), ('flw0', 0), ('flw1', 0), ('flw2', 0), ('flw3', 0), ('lipoC2', 0.0), ('lipoC3S3', 0.0), ('mgs', 0), ('pitch', 99.8), ('roll', 4.21), ('rot0', 0), ('rot1', 0), ('rot2', 0), ('rot3', 0), ('state', 'normal'), ('thr0', 27.0), ('thr1', 27.0), ('thr2', 27.0), ('thr3', 27.0), ('time', 19.07), ('watertemp', 23.46), ('yaw', 0.0)]
[('compass', 7.47), ('cur0', 0.0), ('cur1', 0.0), ('cur2', 0.0), ('datetime', '2019-07-12 14:02:16.885311'), ('depth', -0.02), ('flw0', 0), ('flw1', 0), ('flw2', 0), ('flw3', 0), ('lipoC2', 0.0), ('lipoC3S3', 0.0), ('mgs', 0), ('pitch', 99.8), ('roll', 4.21), ('rot0', 0), ('rot1', 0), ('rot2', 0), ('rot3', 0), ('state', 'normal'), ('thr0', 27.0), ('thr1', 27.0), ('thr2', 28.0), ('thr3', 27.0), ('time', 19.23), ('watertemp', 23.46), ('yaw', 0.0)]
[('compass', 7.47), ('cur0', 0.0), ('cur1', 0.0), ('cur2', 0.0), ('datetime', '2019-07-12 14:02:17.102436'), ('depth', -0.03), ('flw0', 0), ('flw1', 0), ('flw2', 0), ('flw3', 0), ('lipoC2', 0.0), ('lipoC3S3', 0.0), ('mgs', 0), ('pitch', 99.8), ('roll', 4.21), ('rot0', 0), ('rot1', 0), ('rot2', 0), ('rot3', 0), ('state', 'normal'), ('thr0', 27.0), ('thr1', 27.0), ('thr2', 27.0), ('thr3', 27.0), ('time', 19.39), ('watertemp', 23.45), ('yaw', 0.0)]
[('compass', 7.47), ('cur0', 0.0), ('cur1', 0.0), ('cur2', 0.0), ('datetime', '2019-07-12 14:02:17.319578'), ('depth', -0.03), ('flw0', 0), ('flw1', 0), ('flw2', 0), ('flw3', 0), ('lipoC2', 0.0), ('lipoC3S3', 0.0), ('mgs', 0), ('pitch', 99.8), ('roll', 4.21), ('rot0', 0), ('rot1', 0), ('rot2', 0), ('rot3', 0), ('state', 'normal'), ('thr0', 27.0), ('thr1', 27.0), ('thr2', 28.0), ('thr3', 27.0), ('time', 19.56), ('watertemp', 23.46), ('yaw', 0.0)]
[('compass', 7.47), ('cur0', 0.0), ('cur1', 0.0), ('cur2', 0.0), ('datetime', '2019-07-12 14:02:17.536711'), ('depth', -0.02), ('flw0', 0), ('flw1', 0), ('flw2', 0), ('flw3', 0), ('lipoC2', 0.0), ('lipoC3S3', 0.0), ('mgs', 0), ('pitch', 99.8), ('roll', 4.21), ('rot0', 0), ('rot1', 0), ('rot2', 0), ('rot3', 0), ('state', 'normal'), ('thr0', 27.0), ('thr1', 27.0), ('thr2', 27.0), ('thr3', 27.0), ('time', 19.72), ('watertemp', 23.46), ('yaw', 0.0)]
