[('compass', 7.47), ('cur0', 0.0), ('cur1', 0.0), ('cur2', 0.0), ('datetime', '2019-07-12 13:58:41.332513'), ('depth', -0.03), ('flw0', 0), ('flw1', 0), ('flw2', 0), ('flw3', 0), ('lipoC2', 0.0), ('lipoC3S3', 0.0), ('mgs', 0), ('pitch', 99.8), ('roll', 4.21), ('rot0', 0), ('rot1', 0), ('rot2', 0), ('rot3', 0), ('state', 'normal'), ('thr0', 27.0), ('thr1', 27.0), ('thr2', 27.0), ('thr3', 27.0), ('time', 1178.79), ('watertemp', 23.59), ('yaw', -0.04)]
[('compass', 7.47), ('cur0', 0.0), ('cur1', 0.0), ('cur2', 0.0), ('datetime', '2019-07-12 13:58:42.665405'), ('depth', -0.03), ('flw0', 0), ('flw1', 0), ('flw2', 0), ('flw3', 0), ('lipoC2', 0.0), ('lipoC3S3', 0.0), ('mgs', 0), ('pitch', 99.8), ('roll', 4.21), ('rot0', 0), ('rot1', 0), ('rot2', 0), ('rot3', 0), ('state', 'normal'), ('thr0', 27.0), ('thr1', 27.0), ('thr2', 28.0), ('thr3', 27.0), ('time', 1.39), ('watertemp', 23.62), ('yaw', 0.0)]
[('compass', 7.47), ('cur0', 0.0), ('cur1', 0.0), ('cur2', 0.0), ('datetime', '2019-07-12 13:58:42.882743'), ('depth', -0.03), ('flw0', 0), ('flw1', 0), ('flw2', 0), ('flw3', 0), ('lipoC2', 0.0), ('lipoC3S3', 0.0), ('mgs', 0), ('pitch', 99.8), ('roll', 4.21), ('rot0', 0), ('rot1', 0), ('rot2', 0), ('rot3', 0), ('state', 'normal'), ('thr0', 27.0), ('thr1', 27.0), ('thr2', 27.0), ('thr3', 27.0), ('time', 1.56), ('watertemp', 23.57), ('yaw', 0.0)]
[('compass', 7.47), ('cur0', 0.0), ('cur1', 0.0), ('cur2', 0.0), ('datetime', '2019-07-12 13:58:43.099010'), ('depth', -0.03), ('flw0', 0), ('flw1', 0), ('flw2', 0), ('flw3', 0), ('lipoC2', 0.0), ('lipoC3S3', 0.0), ('mgs', 0), ('pitch', 99.8), ('roll', 4.21), ('rot0', 0), ('rot1', 0), ('rot2', 0), ('rot3', 0), ('state', 'normal'), ('thr0', 27.0), ('thr1', 27.0), ('thr2', 28.0), ('thr3', 27.0), ('time', 1.72), ('watertemp', 23.57), ('yaw', 0.0)]
[('compass', 7.47), ('cur0', 0.0), ('cur1', 0.0), ('cur2', 0.0), ('datetime', '2019-07-12 13:58:43.315184'), ('depth', -0.03), ('flw0', 0), ('flw1', 0), ('flw2', 0), ('flw3', 0), ('lipoC2', 0.0), ('lipoC3S3', 0.0), ('mgs', 0), ('pitch', 99.8), ('roll', 4.21), ('rot0', 0), ('rot1', 0), ('rot2', 0), ('rot3', 0), ('state', 'normal'), ('thr0', 27.0), ('thr1', 27.0), ('thr2', 27.0), ('thr3', 27.0), ('time', 1.88), ('watertemp', 23.57), ('yaw', 0.0)]
[('compass', 7.47), ('cur0', 0.0), ('cur1', 0.0), ('cur2', 0.0), ('datetime', '2019-07-12 13:58:43.531332'), ('depth', -0.03), ('flw0', 0), ('flw1', 0), ('flw2', 0), ('flw3', 0), ('lipoC2', 0.0), ('lipoC3S3', 0.0), ('mgs', 0), ('pitch', 99.8), ('roll', 4.21), ('rot0', 0), ('rot1', 0), ('rot2', 0), ('rot3', 0), ('state', 'normal'), ('thr0', 27.0), ('thr1', 27.0), ('thr2', 27.0), ('thr3', 27.0), ('time', 2.04), ('watertemp', 23.57), ('yaw', 0.0)]
[('compass', 7.47), ('cur0', 0.0), ('cur1', 0.0), ('cur2', 0.0), ('datetime', '2019-07-12 13:58:43.747584'), ('depth', -0.03), ('flw0', 0), ('flw1', 0), ('flw2', 0), ('flw3', 0), ('lipoC2', 0.0), ('lipoC3S3', 0.0), ('mgs', 0), ('pitch', 99.8), ('roll', 4.21), ('rot0', 0), ('rot1', 0), ('rot2', 0), ('rot3', 0), ('state', 'normal'), ('thr0', 27.0), ('thr1', 27.0), ('thr2', 28.0), ('thr3', 27.0), ('time', 2.2), ('watertemp', 23.57), ('yaw', 0.0)]
[('compass', 7.47), ('cur0', 0.0), ('cur1', 0.0), ('cur2', 0.0), ('datetime', '2019-07-12 13:58:43.963783'), ('depth', -0.03), ('flw0', 0), ('flw1', 0), ('flw2', 0), ('flw3', 0), ('lipoC2', 0.0), ('lipoC3S3', 0.0), ('mgs', 0), ('pitch', 99.8), ('roll', 4.21), ('rot0', 0), ('rot1', 0), ('rot2', 0), ('rot3', 0), ('state', 'normal'), ('thr0', 27.0), ('thr1', 27.0), ('thr2', 28.0), ('thr3', 27.0), ('time', 2.36), ('watertemp', 23.57), ('yaw', 0.0)]
[('compass', 7.47), ('cur0', 0.0), ('cur1', 0.0), ('cur2', 0.0), ('datetime', '2019-07-12 13:58:44.180028'), ('depth', -0.03), ('flw0', 0), ('flw1', 0), ('flw2', 0), ('flw3', 0), ('lipoC2', 0.0), ('lipoC3S3', 0.0), ('mgs', 0), ('pitch', 99.8), ('roll', 4.21), ('rot0', 0), ('rot1', 0), ('rot2', 0), ('rot3', 0), ('state', 'normal'), ('thr0', 27.0), ('thr1', 27.0), ('thr2', 27.0), ('thr3', 27.0), ('time', 2.52), ('watertemp', 23.57), ('yaw', 0.0)]
[('compass', 7.47), ('cur0', 0.0), ('cur1', 0.0), ('cur2', 0.0), ('datetime', '2019-07-12 13:58:44.396224'), ('depth', -0.03), ('flw0', 0), ('flw1', 0), ('flw2', 0), ('flw3', 0), ('lipoC2', 0.0), ('lipoC3S3', 0.0), ('mgs', 0), ('pitch', 99.8), ('roll', 4.21), ('rot0', 0), ('rot1', 0), ('rot2', 0), ('rot3', 0), ('state', 'normal'), ('thr0', 27.0), ('thr1', 27.0), ('thr2', 27.0), ('thr3', 27.0), ('time', 2.68), ('watertemp', 23.58), ('yaw', 0.0)]
[('compass', 7.47), ('cur0', 0.0), ('cur1', 0.0), ('cur2', 0.0), ('datetime', '2019-07-12 13:58:44.612446'), ('depth', -0.03), ('flw0', 0), ('flw1', 0), ('flw2', 0), ('flw3', 0), ('lipoC2', 0.0), ('lipoC3S3', 0.0), ('mgs', 0), ('pitch', 99.8), ('roll', 4.21), ('rot0', 0), ('rot1', 0), ('rot2', 0), ('rot3', 0), ('state', 'normal'), ('thr0', 27.0), ('thr1', 27.0), ('thr2', 28.0), ('thr3', 27.0), ('time', 2.84), ('watertemp', 23.58), ('yaw', 0.0)]
[('compass', 7.47), ('cur0', 0.0), ('cur1', 0.0), ('cur2', 0.0), ('datetime', '2019-07-12 13:58:44.828681'), ('depth', -0.03), ('flw0', 0), ('flw1', 0), ('flw2', 0), ('flw3', 0), ('lipoC2', 0.0), ('lipoC3S3', 0.0), ('mgs', 0), ('pitch', 99.8), ('roll', 4.21), ('rot0', 0), ('rot1', 0), ('rot2', 0), ('rot3', 0), ('state', 'normal'), ('thr0', 27.0), ('thr1', 27.0), ('thr2', 28.0), ('thr3', 27.0), ('time', 3.0), ('watertemp', 23.58), ('yaw', 0.0)]
[('compass', 7.47), ('cur0', 0.0), ('cur1', 0.0), ('cur2', 0.0), ('datetime', '2019-07-12 13:58:45.044880'), ('depth', -0.03), ('flw0', 0), ('flw1', 0), ('flw2', 0), ('flw3', 0), ('lipoC2', 0.0), ('lipoC3S3', 0.0), ('mgs', 0), ('pitch', 99.8), ('roll', 4.21), ('rot0', 0), ('rot1', 0), ('rot2', 0), ('rot3', 0), ('state', 'normal'), ('thr0', 27.0), ('thr1', 27.0), ('thr2', 28.0), ('thr3', 27.0), ('time', 3.16), ('watertemp', 23.58), ('yaw', 0.0)]
[('compass', 7.47), ('cur0', 0.0), ('cur1', 0.0), ('cur2', 0.0), ('datetime', '2019-07-12 13:58:45.261117'), ('depth', -0.03), ('flw0', 0), ('flw1', 0), ('flw2', 0), ('flw3', 0), ('lipoC2', 0.0), ('lipoC3S3', 0.0), ('mgs', 0), ('pitch', 99.8), ('roll', 4.21), ('rot0', 0), ('rot1', 0), ('rot2', 0), ('rot3', 0), ('state', 'normal'), ('thr0', 27.0), ('thr1', 27.0), ('thr2', 27.0), ('thr3', 27.0), ('time', 3.32), ('watertemp', 23.58), ('yaw', 0.0)]
[('compass', 7.47), ('cur0', 0.0), ('cur1', 0.0), ('cur2', 0.0), ('datetime', '2019-07-12 13:58:45.477309'), ('depth', -0.03), ('flw0', 0), ('flw1', 0), ('flw2', 0), ('flw3', 0), ('lipoC2', 0.0), ('lipoC3S3', 0.0), ('mgs', 0), ('pitch', 99.8), ('roll', 4.21), ('rot0', 0), ('rot1', 0), ('rot2', 0), ('rot3', 0), ('state', 'normal'), ('thr0', 27.0), ('thr1', 27.0), ('thr2', 27.0), ('thr3', 27.0), ('time', 3.48), ('watertemp', 23.58), ('yaw', 0.0)]
[('compass', 7.47), ('cur0', 0.0), ('cur1', 0.0), ('cur2', 0.0), ('datetime', '2019-07-12 13:58:45.693522'), ('depth', -0.03), ('flw0', 0), ('flw1', 0), ('flw2', 0), ('flw3', 0), ('lipoC2', 0.0), ('lipoC3S3', 0.0), ('mgs', 0), ('pitch', 99.8), ('roll', 4.21), ('rot0', 0), ('rot1', 0), ('rot2', 0), ('rot3', 0), ('state', 'normal'), ('thr0', 27.0), ('thr1', 27.0), ('thr2', 27.0), ('thr3', 27.0), ('time', 3.64), ('watertemp', 23.58), ('yaw', 0.0)]
[('compass', 7.47), ('cur0', 0.0), ('cur1', 0.0), ('cur2', 0.0), ('datetime', '2019-07-12 13:58:45.909743'), ('depth', -0.03), ('flw0', 0), ('flw1', 0), ('flw2', 0), ('flw3', 0), ('lipoC2', 0.0), ('lipoC3S3', 0.0), ('mgs', 0), ('pitch', 99.8), ('roll', 4.21), ('rot0', 0), ('rot1', 0), ('rot2', 0), ('rot3', 0), ('state', 'normal'), ('thr0', 27.0), ('thr1', 27.0), ('thr2', 27.0), ('thr3', 27.0), ('time', 3.81), ('watertemp', 23.58), ('yaw', 0.0)]
[('compass', 7.47), ('cur0', 0.0), ('cur1', 0.0), ('cur2', 0.0), ('datetime', '2019-07-12 13:58:46.125933'), ('depth', -0.03), ('flw0', 0), ('flw1', 0), ('flw2', 0), ('flw3', 0), ('lipoC2', 0.0), ('lipoC3S3', 0.0), ('mgs', 0), ('pitch', 99.8), ('roll', 4.21), ('rot0', 0), ('rot1', 0), ('rot2', 0), ('rot3', 0), ('state', 'normal'), ('thr0', 27.0), ('thr1', 27.0), ('thr2', 27.0), ('thr3', 27.0), ('time', 3.97), ('watertemp', 23.58), ('yaw', 0.0)]
[('compass', 7.47), ('cur0', 0.0), ('cur1', 0.0), ('cur2', 0.0), ('datetime', '2019-07-12 13:58:46.342119'), ('depth', -0.03), ('flw0', 0), ('flw1', 0), ('flw2', 0), ('flw3', 0), ('lipoC2', 0.0), ('lipoC3S3', 0.0), ('mgs', 0), ('pitch', 99.8), ('roll', 4.21), ('rot0', 0), ('rot1', 0), ('rot2', 0), ('rot3', 0), ('state', 'normal'), ('thr0', 27.0), ('thr1', 27.0), ('thr2', 28.0), ('thr3', 27.0), ('time', 4.13), ('watertemp', 23.58), ('yaw', 0.0)]
[('compass', 7.47), ('cur0', 0.0), ('cur1', 0.0), ('cur2', 0.0), ('datetime', '2019-07-12 13:58:46.559887'), ('depth', -0.03), ('flw0', 0), ('flw1', 0), ('flw2', 0), ('flw3', 0), ('lipoC2', 0.0), ('lipoC3S3', 0.0), ('mgs', 0), ('pitch', 99.8), ('roll', 4.21), ('rot0', 0), ('rot1', 0), ('rot2', 0), ('rot3', 0), ('state', 'normal'), ('thr0', 27.0), ('thr1', 27.0), ('thr2', 28.0), ('thr3', 27.0), ('time', 4.29), ('watertemp', 23.58), ('yaw', 0.0)]
[('compass', 7.47), ('cur0', 0.0), ('cur1', 0.0), ('cur2', 0.0), ('datetime', '2019-07-12 13:58:46.776063'), ('depth', -0.03), ('flw0', 0), ('flw1', 0), ('flw2', 0), ('flw3', 0), ('lipoC2', 0.0), ('lipoC3S3', 0.0), ('mgs', 0), ('pitch', 99.8), ('roll', 4.21), ('rot0', 0), ('rot1', 0), ('rot2', 0), ('rot3', 0), ('state', 'normal'), ('thr0', 27.0), ('thr1', 27.0), ('thr2', 27.0), ('thr3', 27.0), ('time', 4.45), ('watertemp', 23.58), ('yaw', 0.0)]
[('compass', 7.47), ('cur0', 0.0), ('cur1', 0.0), ('cur2', 0.0), ('datetime', '2019-07-12 13:58:46.992243'), ('depth', -0.03), ('flw0', 0), ('flw1', 0), ('flw2', 0), ('flw3', 0), ('lipoC2', 0.0), ('lipoC3S3', 0.0), ('mgs', 0), ('pitch', 99.8), ('roll', 4.21), ('rot0', 0), ('rot1', 0), ('rot2', 0), ('rot3', 0), ('state', 'normal'), ('thr0', 27.0), ('thr1', 27.0), ('thr2', 27.0), ('thr3', 27.0), ('time', 4.61), ('watertemp', 23.58), ('yaw', 0.0)]
[('compass', 7.47), ('cur0', 0.0), ('cur1', 0.0), ('cur2', 0.0), ('datetime', '2019-07-12 13:58:47.208467'), ('depth', -0.02), ('flw0', 0), ('flw1', 0), ('flw2', 0), ('flw3', 0), ('lipoC2', 0.0), ('lipoC3S3', 0.0), ('mgs', 0), ('pitch', 99.8), ('roll', 4.21), ('rot0', 0), ('rot1', 0), ('rot2', 0), ('rot3', 0), ('state', 'normal'), ('thr0', 27.0), ('thr1', 27.0), ('thr2', 27.0), ('thr3', 27.0), ('time', 4.77), ('watertemp', 23.58), ('yaw', 0.0)]
[('compass', 7.47), ('cur0', 0.0), ('cur1', 0.0), ('cur2', 0.0), ('datetime', '2019-07-12 13:58:47.424662'), ('depth', -0.03), ('flw0', 0), ('flw1', 0), ('flw2', 0), ('flw3', 0), ('lipoC2', 0.0), ('lipoC3S3', 0.0), ('mgs', 0), ('pitch', 99.8), ('roll', 4.21), ('rot0', 0), ('rot1', 0), ('rot2', 0), ('rot3', 0), ('state', 'normal'), ('thr0', 27.0), ('thr1', 27.0), ('thr2', 27.0), ('thr3', 27.0), ('time', 4.93), ('watertemp', 23.58), ('yaw', 0.0)]
[('compass', 7.47), ('cur0', 0.0), ('cur1', 0.0), ('cur2', 0.0), ('datetime', '2019-07-12 13:58:47.640951'), ('depth', -0.03), ('flw0', 0), ('flw1', 0), ('flw2', 0), ('flw3', 0), ('lipoC2', 0.0), ('lipoC3S3', 0.0), ('mgs', 0), ('pitch', 99.8), ('roll', 4.21), ('rot0', 0), ('rot1', 0), ('rot2', 0), ('rot3', 0), ('state', 'normal'), ('thr0', 27.0), ('thr1', 27.0), ('thr2', 27.0), ('thr3', 27.0), ('time', 5.09), ('watertemp', 23.58), ('yaw', 0.0)]
[('compass', 7.47), ('cur0', 0.0), ('cur1', 0.0), ('cur2', 0.0), ('datetime', '2019-07-12 13:58:47.858735'), ('depth', -0.03), ('flw0', 0), ('flw1', 0), ('flw2', 0), ('flw3', 0), ('lipoC2', 0.0), ('lipoC3S3', 0.0), ('mgs', 0), ('pitch', 99.8), ('roll', 4.21), ('rot0', 0), ('rot1', 0), ('rot2', 0), ('rot3', 0), ('state', 'normal'), ('thr0', 27.0), ('thr1', 27.0), ('thr2', 27.0), ('thr3', 27.0), ('time', 5.25), ('watertemp', 23.58), ('yaw', 0.0)]
[('compass', 7.47), ('cur0', 0.0), ('cur1', 0.0), ('cur2', 0.0), ('datetime', '2019-07-12 13:58:48.074999'), ('depth', -0.03), ('flw0', 0), ('flw1', 0), ('flw2', 0), ('flw3', 0), ('lipoC2', 0.0), ('lipoC3S3', 0.0), ('mgs', 0), ('pitch', 99.8), ('roll', 4.21), ('rot0', 0), ('rot1', 0), ('rot2', 0), ('rot3', 0), ('state', 'normal'), ('thr0', 27.0), ('thr1', 27.0), ('thr2', 28.0), ('thr3', 27.0), ('time', 5.41), ('watertemp', 23.58), ('yaw', 0.0)]
[('compass', 7.47), ('cur0', 0.0), ('cur1', 0.0), ('cur2', 0.0), ('datetime', '2019-07-12 13:58:48.291828'), ('depth', -0.03), ('flw0', 0), ('flw1', 0), ('flw2', 0), ('flw3', 0), ('lipoC2', 0.0), ('lipoC3S3', 0.0), ('mgs', 0), ('pitch', 99.8), ('roll', 4.21), ('rot0', 0), ('rot1', 0), ('rot2', 0), ('rot3', 0), ('state', 'normal'), ('thr0', 27.0), ('thr1', 27.0), ('thr2', 28.0), ('thr3', 27.0), ('time', 5.57), ('watertemp', 23.58), ('yaw', 0.0)]
[('compass', 7.47), ('cur0', 0.0), ('cur1', 0.0), ('cur2', 0.0), ('datetime', '2019-07-12 13:58:48.508194'), ('depth', -0.03), ('flw0', 0), ('flw1', 0), ('flw2', 0), ('flw3', 0), ('lipoC2', 0.0), ('lipoC3S3', 0.0), ('mgs', 0), ('pitch', 99.8), ('roll', 4.21), ('rot0', 0), ('rot1', 0), ('rot2', 0), ('rot3', 0), ('state', 'normal'), ('thr0', 27.0), ('thr1', 27.0), ('thr2', 27.0), ('thr3', 27.0), ('time', 5.73), ('watertemp', 23.58), ('yaw', 0.0)]
[('compass', 7.47), ('cur0', 0.0), ('cur1', 0.0), ('cur2', 0.0), ('datetime', '2019-07-12 13:58:48.724648'), ('depth', -0.03), ('flw0', 0), ('flw1', 0), ('flw2', 0), ('flw3', 0), ('lipoC2', 0.0), ('lipoC3S3', 0.0), ('mgs', 0), ('pitch', 99.8), ('roll', 4.21), ('rot0', 0), ('rot1', 0), ('rot2', 0), ('rot3', 0), ('state', 'normal'), ('thr0', 27.0), ('thr1', 27.0), ('thr2', 27.0), ('thr3', 27.0), ('time', 5.89), ('watertemp', 23.58), ('yaw', 0.0)]
[('compass', 7.47), ('cur0', 0.0), ('cur1', 0.0), ('cur2', 0.0), ('datetime', '2019-07-12 13:58:48.941148'), ('depth', -0.03), ('flw0', 0), ('flw1', 0), ('flw2', 0), ('flw3', 0), ('lipoC2', 0.0), ('lipoC3S3', 0.0), ('mgs', 0), ('pitch', 99.8), ('roll', 4.21), ('rot0', 0), ('rot1', 0), ('rot2', 0), ('rot3', 0), ('state', 'normal'), ('thr0', 27.0), ('thr1', 27.0), ('thr2', 28.0), ('thr3', 27.0), ('time', 6.05), ('watertemp', 23.58), ('yaw', 0.0)]
[('compass', 7.47), ('cur0', 0.0), ('cur1', 0.0), ('cur2', 0.0), ('datetime', '2019-07-12 13:58:49.157537'), ('depth', -0.03), ('flw0', 0), ('flw1', 0), ('flw2', 0), ('flw3', 0), ('lipoC2', 0.0), ('lipoC3S3', 0.0), ('mgs', 0), ('pitch', 99.8), ('roll', 4.21), ('rot0', 0), ('rot1', 0), ('rot2', 0), ('rot3', 0), ('state', 'normal'), ('thr0', 27.0), ('thr1', 27.0), ('thr2', 28.0), ('thr3', 27.0), ('time', 6.22), ('watertemp', 23.58), ('yaw', 0.0)]
[('compass', 7.47), ('cur0', 0.0), ('cur1', 0.0), ('cur2', 0.0), ('datetime', '2019-07-12 13:58:49.373957'), ('depth', -0.03), ('flw0', 0), ('flw1', 0), ('flw2', 0), ('flw3', 0), ('lipoC2', 0.0), ('lipoC3S3', 0.0), ('mgs', 0), ('pitch', 99.8), ('roll', 4.21), ('rot0', 0), ('rot1', 0), ('rot2', 0), ('rot3', 0), ('state', 'normal'), ('thr0', 27.0), ('thr1', 27.0), ('thr2', 27.0), ('thr3', 27.0), ('time', 6.38), ('watertemp', 23.58), ('yaw', 0.0)]
[('compass', 7.47), ('cur0', 0.0), ('cur1', 0.0), ('cur2', 0.0), ('datetime', '2019-07-12 13:58:49.591068'), ('depth', -0.03), ('flw0', 0), ('flw1', 0), ('flw2', 0), ('flw3', 0), ('lipoC2', 0.0), ('lipoC3S3', 0.0), ('mgs', 0), ('pitch', 99.8), ('roll', 4.21), ('rot0', 0), ('rot1', 0), ('rot2', 0), ('rot3', 0), ('state', 'normal'), ('thr0', 27.0), ('thr1', 27.0), ('thr2', 27.0), ('thr3', 28.0), ('time', 6.54), ('watertemp', 23.58), ('yaw', 0.0)]
[('compass', 7.47), ('cur0', 0.0), ('cur1', 0.0), ('cur2', 0.0), ('datetime', '2019-07-12 13:58:49.808133'), ('depth', -0.03), ('flw0', 0), ('flw1', 0), ('flw2', 0), ('flw3', 0), ('lipoC2', 0.0), ('lipoC3S3', 0.0), ('mgs', 0), ('pitch', 99.8), ('roll', 4.21), ('rot0', 0), ('rot1', 0), ('rot2', 0), ('rot3', 0), ('state', 'normal'), ('thr0', 27.0), ('thr1', 27.0), ('thr2', 28.0), ('thr3', 27.0), ('time', 6.7), ('watertemp', 23.58), ('yaw', 0.0)]
[('compass', 7.47), ('cur0', 0.0), ('cur1', 0.0), ('cur2', 0.0), ('datetime', '2019-07-12 13:58:50.025281'), ('depth', -0.03), ('flw0', 0), ('flw1', 0), ('flw2', 0), ('flw3', 0), ('lipoC2', 0.0), ('lipoC3S3', 0.0), ('mgs', 0), ('pitch', 99.8), ('roll', 4.21), ('rot0', 0), ('rot1', 0), ('rot2', 0), ('rot3', 0), ('state', 'normal'), ('thr0', 27.0), ('thr1', 27.0), ('thr2', 27.0), ('thr3', 27.0), ('time', 6.86), ('watertemp', 23.58), ('yaw', 0.0)]
[('compass', 7.47), ('cur0', 0.0), ('cur1', 0.0), ('cur2', 0.0), ('datetime', '2019-07-12 13:58:50.242511'), ('depth', -0.03), ('flw0', 0), ('flw1', 0), ('flw2', 0), ('flw3', 0), ('lipoC2', 0.0), ('lipoC3S3', 0.0), ('mgs', 0), ('pitch', 99.8), ('roll', 4.21), ('rot0', 0), ('rot1', 0), ('rot2', 0), ('rot3', 0), ('state', 'normal'), ('thr0', 27.0), ('thr1', 27.0), ('thr2', 27.0), ('thr3', 28.0), ('time', 7.02), ('watertemp', 23.58), ('yaw', 0.0)]
[('compass', 7.47), ('cur0', 0.0), ('cur1', 0.0), ('cur2', 0.0), ('datetime', '2019-07-12 13:58:50.461153'), ('depth', -0.03), ('flw0', 0), ('flw1', 0), ('flw2', 0), ('flw3', 0), ('lipoC2', 0.0), ('lipoC3S3', 0.0), ('mgs', 0), ('pitch', 99.8), ('roll', 4.21), ('rot0', 0), ('rot1', 0), ('rot2', 0), ('rot3', 0), ('state', 'normal'), ('thr0', 27.0), ('thr1', 27.0), ('thr2', 27.0), ('thr3', 27.0), ('time', 7.18), ('watertemp', 23.58), ('yaw', 0.0)]
[('compass', 7.47), ('cur0', 0.0), ('cur1', 0.0), ('cur2', 0.0), ('datetime', '2019-07-12 13:58:50.678425'), ('depth', -0.03), ('flw0', 0), ('flw1', 0), ('flw2', 0), ('flw3', 0), ('lipoC2', 0.0), ('lipoC3S3', 0.0), ('mgs', 0), ('pitch', 99.8), ('roll', 4.21), ('rot0', 0), ('rot1', 0), ('rot2', 0), ('rot3', 0), ('state', 'normal'), ('thr0', 27.0), ('thr1', 27.0), ('thr2', 28.0), ('thr3', 27.0), ('time', 7.34), ('watertemp', 23.58), ('yaw', 0.0)]
[('compass', 7.47), ('cur0', 0.0), ('cur1', 0.0), ('cur2', 0.0), ('datetime', '2019-07-12 13:58:50.895825'), ('depth', -0.03), ('flw0', 0), ('flw1', 0), ('flw2', 0), ('flw3', 0), ('lipoC2', 0.0), ('lipoC3S3', 0.0), ('mgs', 0), ('pitch', 99.8), ('roll', 4.21), ('rot0', 0), ('rot1', 0), ('rot2', 0), ('rot3', 0), ('state', 'normal'), ('thr0', 27.0), ('thr1', 27.0), ('thr2', 28.0), ('thr3', 27.0), ('time', 7.5), ('watertemp', 23.58), ('yaw', 0.0)]
[('compass', 7.47), ('cur0', 0.0), ('cur1', 0.0), ('cur2', 0.0), ('datetime', '2019-07-12 13:58:51.113180'), ('depth', -0.03), ('flw0', 0), ('flw1', 0), ('flw2', 0), ('flw3', 0), ('lipoC2', 0.0), ('lipoC3S3', 0.0), ('mgs', 0), ('pitch', 99.8), ('roll', 4.21), ('rot0', 0), ('rot1', 0), ('rot2', 0), ('rot3', 0), ('state', 'normal'), ('thr0', 27.0), ('thr1', 27.0), ('thr2', 28.0), ('thr3', 27.0), ('time', 7.66), ('watertemp', 23.58), ('yaw', 0.0)]
[('compass', 7.47), ('cur0', 0.0), ('cur1', 0.0), ('cur2', 0.0), ('datetime', '2019-07-12 13:58:51.330449'), ('depth', -0.03), ('flw0', 0), ('flw1', 0), ('flw2', 0), ('flw3', 0), ('lipoC2', 0.0), ('lipoC3S3', 0.0), ('mgs', 0), ('pitch', 99.8), ('roll', 4.21), ('rot0', 0), ('rot1', 0), ('rot2', 0), ('rot3', 0), ('state', 'normal'), ('thr0', 27.0), ('thr1', 27.0), ('thr2', 27.0), ('thr3', 27.0), ('time', 7.82), ('watertemp', 23.58), ('yaw', 0.0)]
[('compass', 7.47), ('cur0', 0.0), ('cur1', 0.0), ('cur2', 0.0), ('datetime', '2019-07-12 13:58:51.547734'), ('depth', -0.03), ('flw0', 0), ('flw1', 0), ('flw2', 0), ('flw3', 0), ('lipoC2', 0.0), ('lipoC3S3', 0.0), ('mgs', 0), ('pitch', 99.8), ('roll', 4.21), ('rot0', 0), ('rot1', 0), ('rot2', 0), ('rot3', 0), ('state', 'normal'), ('thr0', 27.0), ('thr1', 27.0), ('thr2', 27.0), ('thr3', 27.0), ('time', 7.98), ('watertemp', 23.58), ('yaw', 0.0)]
[('compass', 7.47), ('cur0', 0.0), ('cur1', 0.0), ('cur2', 0.0), ('datetime', '2019-07-12 13:58:51.765018'), ('depth', -0.03), ('flw0', 0), ('flw1', 0), ('flw2', 0), ('flw3', 0), ('lipoC2', 0.0), ('lipoC3S3', 0.0), ('mgs', 0), ('pitch', 99.8), ('roll', 4.21), ('rot0', 0), ('rot1', 0), ('rot2', 0), ('rot3', 0), ('state', 'normal'), ('thr0', 27.0), ('thr1', 27.0), ('thr2', 28.0), ('thr3', 28.0), ('time', 8.14), ('watertemp', 23.58), ('yaw', 0.0)]
[('compass', 7.47), ('cur0', 0.0), ('cur1', 0.0), ('cur2', 0.0), ('datetime', '2019-07-12 13:58:51.982298'), ('depth', -0.03), ('flw0', 0), ('flw1', 0), ('flw2', 0), ('flw3', 0), ('lipoC2', 0.0), ('lipoC3S3', 0.0), ('mgs', 0), ('pitch', 99.8), ('roll', 4.21), ('rot0', 0), ('rot1', 0), ('rot2', 0), ('rot3', 0), ('state', 'normal'), ('thr0', 27.0), ('thr1', 27.0), ('thr2', 28.0), ('thr3', 27.0), ('time', 8.31), ('watertemp', 23.58), ('yaw', 0.0)]
[('compass', 7.47), ('cur0', 0.0), ('cur1', 0.0), ('cur2', 0.0), ('datetime', '2019-07-12 13:58:52.199565'), ('depth', -0.03), ('flw0', 0), ('flw1', 0), ('flw2', 0), ('flw3', 0), ('lipoC2', 0.0), ('lipoC3S3', 0.0), ('mgs', 0), ('pitch', 99.8), ('roll', 4.21), ('rot0', 0), ('rot1', 0), ('rot2', 0), ('rot3', 0), ('state', 'normal'), ('thr0', 27.0), ('thr1', 27.0), ('thr2', 28.0), ('thr3', 27.0), ('time', 8.47), ('watertemp', 23.58), ('yaw', 0.0)]
[('compass', 7.47), ('cur0', 0.0), ('cur1', 0.0), ('cur2', 0.0), ('datetime', '2019-07-12 13:58:52.416919'), ('depth', -0.03), ('flw0', 0), ('flw1', 0), ('flw2', 0), ('flw3', 0), ('lipoC2', 0.0), ('lipoC3S3', 0.0), ('mgs', 0), ('pitch', 99.8), ('roll', 4.21), ('rot0', 0), ('rot1', 0), ('rot2', 0), ('rot3', 0), ('state', 'normal'), ('thr0', 27.0), ('thr1', 27.0), ('thr2', 28.0), ('thr3', 27.0), ('time', 8.63), ('watertemp', 23.58), ('yaw', 0.0)]
[('compass', 7.47), ('cur0', 0.0), ('cur1', 0.0), ('cur2', 0.0), ('datetime', '2019-07-12 13:58:52.634177'), ('depth', -0.03), ('flw0', 0), ('flw1', 0), ('flw2', 0), ('flw3', 0), ('lipoC2', 0.0), ('lipoC3S3', 0.0), ('mgs', 0), ('pitch', 99.8), ('roll', 4.21), ('rot0', 0), ('rot1', 0), ('rot2', 0), ('rot3', 0), ('state', 'normal'), ('thr0', 27.0), ('thr1', 27.0), ('thr2', 28.0), ('thr3', 27.0), ('time', 8.79), ('watertemp', 23.58), ('yaw', 0.0)]
[('compass', 7.47), ('cur0', 0.0), ('cur1', 0.0), ('cur2', 0.0), ('datetime', '2019-07-12 13:58:52.851426'), ('depth', -0.03), ('flw0', 0), ('flw1', 0), ('flw2', 0), ('flw3', 0), ('lipoC2', 0.0), ('lipoC3S3', 0.0), ('mgs', 0), ('pitch', 99.8), ('roll', 4.21), ('rot0', 0), ('rot1', 0), ('rot2', 0), ('rot3', 0), ('state', 'normal'), ('thr0', 27.0), ('thr1', 27.0), ('thr2', 27.0), ('thr3', 27.0), ('time', 8.95), ('watertemp', 23.58), ('yaw', 0.0)]
[('compass', 7.47), ('cur0', 0.0), ('cur1', 0.0), ('cur2', 0.0), ('datetime', '2019-07-12 13:58:53.068662'), ('depth', -0.03), ('flw0', 0), ('flw1', 0), ('flw2', 0), ('flw3', 0), ('lipoC2', 0.0), ('lipoC3S3', 0.0), ('mgs', 0), ('pitch', 99.8), ('roll', 4.21), ('rot0', 0), ('rot1', 0), ('rot2', 0), ('rot3', 0), ('state', 'normal'), ('thr0', 27.0), ('thr1', 27.0), ('thr2', 28.0), ('thr3', 27.0), ('time', 9.11), ('watertemp', 23.58), ('yaw', 0.0)]
