[('compass', 0.0), ('cur0', 0.0), ('cur1', 0.0), ('cur2', 0.0), ('datetime', '2019-09-11 11:49:53.334903'), ('depth', 366518.94), ('flw0', 0), ('flw1', 0), ('flw2', 0), ('flw3', 0), ('lipoC2', 3.93), ('lipoC3S3', 4.4), ('mgs', 1), ('pitch', 0.0), ('roll', 0.0), ('rot0', 0), ('rot1', 0), ('rot2', 137), ('rot3', 0), ('state', 'd9_error'), ('thr0', 0.0), ('thr1', 27.0), ('thr2', 26.0), ('thr3', 27.0), ('time', 49.82), ('watertemp', -2273.69), ('yaw', 0.0)]
[('compass', 0.0), ('cur0', 0.0), ('cur1', 0.0), ('cur2', 0.0), ('datetime', '2019-09-11 11:49:53.540646'), ('depth', 366518.94), ('flw0', 0), ('flw1', 0), ('flw2', 0), ('flw3', 0), ('lipoC2', 3.93), ('lipoC3S3', 4.4), ('mgs', 1), ('pitch', 0.0), ('roll', 0.0), ('rot0', 0), ('rot1', 0), ('rot2', 137), ('rot3', 0), ('state', 'd9_error'), ('thr0', 0.0), ('thr1', 27.0), ('thr2', 26.0), ('thr3', 27.0), ('time', 49.82), ('watertemp', -2273.69), ('yaw', 0.0)]
[('compass', 0.0), ('cur0', 0.0), ('cur1', 0.0), ('cur2', 0.0), ('datetime', '2019-09-11 11:49:53.742559'), ('depth', 366518.94), ('flw0', 0), ('flw1', 0), ('flw2', 0), ('flw3', 0), ('lipoC2', 3.93), ('lipoC3S3', 4.4), ('mgs', 1), ('pitch', 0.0), ('roll', 0.0), ('rot0', 0), ('rot1', 0), ('rot2', 137), ('rot3', 0), ('state', 'd9_error'), ('thr0', 0.0), ('thr1', 27.0), ('thr2', 26.0), ('thr3', 27.0), ('time', 49.82), ('watertemp', -2273.69), ('yaw', 0.0)]
[('compass', 0.0), ('cur0', 0.0), ('cur1', 0.0), ('cur2', 0.0), ('datetime', '2019-09-11 11:49:53.944440'), ('depth', 366518.94), ('flw0', 0), ('flw1', 0), ('flw2', 0), ('flw3', 0), ('lipoC2', 3.93), ('lipoC3S3', 4.4), ('mgs', 1), ('pitch', 0.0), ('roll', 0.0), ('rot0', 0), ('rot1', 0), ('rot2', 137), ('rot3', 0), ('state', 'd9_error'), ('thr0', 0.0), ('thr1', 27.0), ('thr2', 26.0), ('thr3', 27.0), ('time', 49.82), ('watertemp', -2273.69), ('yaw', 0.0)]
[('compass', 0.0), ('cur0', 0.0), ('cur1', 0.0), ('cur2', 0.0), ('datetime', '2019-09-11 11:49:54.146367'), ('depth', 366518.94), ('flw0', 0), ('flw1', 0), ('flw2', 0), ('flw3', 0), ('lipoC2', 3.93), ('lipoC3S3', 4.4), ('mgs', 1), ('pitch', 0.0), ('roll', 0.0), ('rot0', 0), ('rot1', 0), ('rot2', 137), ('rot3', 0), ('state', 'd9_error'), ('thr0', 0.0), ('thr1', 27.0), ('thr2', 26.0), ('thr3', 27.0), ('time', 49.82), ('watertemp', -2273.69), ('yaw', 0.0)]
[('compass', 0.0), ('cur0', 0.0), ('cur1', 0.0), ('cur2', 0.0), ('datetime', '2019-09-11 11:49:54.349198'), ('depth', 366518.94), ('flw0', 0), ('flw1', 0), ('flw2', 0), ('flw3', 0), ('lipoC2', 3.93), ('lipoC3S3', 4.4), ('mgs', 1), ('pitch', 0.0), ('roll', 0.0), ('rot0', 0), ('rot1', 0), ('rot2', 137), ('rot3', 0), ('state', 'd9_error'), ('thr0', 0.0), ('thr1', 27.0), ('thr2', 26.0), ('thr3', 27.0), ('time', 49.82), ('watertemp', -2273.69), ('yaw', 0.0)]
[('compass', 0.0), ('cur0', 0.0), ('cur1', 0.0), ('cur2', 0.0), ('datetime', '2019-09-11 11:49:54.551227'), ('depth', 366518.94), ('flw0', 0), ('flw1', 0), ('flw2', 0), ('flw3', 0), ('lipoC2', 3.93), ('lipoC3S3', 4.4), ('mgs', 1), ('pitch', 0.0), ('roll', 0.0), ('rot0', 0), ('rot1', 0), ('rot2', 137), ('rot3', 0), ('state', 'd9_error'), ('thr0', 0.0), ('thr1', 27.0), ('thr2', 26.0), ('thr3', 27.0), ('time', 49.82), ('watertemp', -2273.69), ('yaw', 0.0)]
[('compass', 0.0), ('cur0', 0.0), ('cur1', 0.0), ('cur2', 0.0), ('datetime', '2019-09-11 11:49:54.753157'), ('depth', 366518.94), ('flw0', 0), ('flw1', 0), ('flw2', 0), ('flw3', 0), ('lipoC2', 3.93), ('lipoC3S3', 4.4), ('mgs', 1), ('pitch', 0.0), ('roll', 0.0), ('rot0', 0), ('rot1', 0), ('rot2', 137), ('rot3', 0), ('state', 'd9_error'), ('thr0', 0.0), ('thr1', 27.0), ('thr2', 26.0), ('thr3', 27.0), ('time', 49.82), ('watertemp', -2273.69), ('yaw', 0.0)]
[('compass', 0.0), ('cur0', 0.0), ('cur1', 0.0), ('cur2', 0.0), ('datetime', '2019-09-11 11:49:54.955053'), ('depth', 366518.94), ('flw0', 0), ('flw1', 0), ('flw2', 0), ('flw3', 0), ('lipoC2', 3.93), ('lipoC3S3', 4.4), ('mgs', 1), ('pitch', 0.0), ('roll', 0.0), ('rot0', 0), ('rot1', 0), ('rot2', 137), ('rot3', 0), ('state', 'd9_error'), ('thr0', 0.0), ('thr1', 27.0), ('thr2', 26.0), ('thr3', 27.0), ('time', 49.82), ('watertemp', -2273.69), ('yaw', 0.0)]
[('compass', 0.0), ('cur0', 0.0), ('cur1', 0.0), ('cur2', 0.0), ('datetime', '2019-09-11 11:49:55.157024'), ('depth', 366518.94), ('flw0', 0), ('flw1', 0), ('flw2', 0), ('flw3', 0), ('lipoC2', 3.86), ('lipoC3S3', 4.28), ('mgs', 1), ('pitch', 0.0), ('roll', 0.0), ('rot0', 0), ('rot1', 0), ('rot2', 0), ('rot3', 0), ('state', 'd9_error'), ('thr0', 0.0), ('thr1', 26.0), ('thr2', 27.0), ('thr3', 26.0), ('time', 1.39), ('watertemp', -2273.69), ('yaw', 0.0)]
[('compass', 0.0), ('cur0', 0.0), ('cur1', 0.0), ('cur2', 0.0), ('datetime', '2019-09-11 11:49:55.359512'), ('depth', 366518.94), ('flw0', 0), ('flw1', 0), ('flw2', 0), ('flw3', 0), ('lipoC2', 3.87), ('lipoC3S3', 4.3), ('mgs', 1), ('pitch', 0.0), ('roll', 0.0), ('rot0', 0), ('rot1', 0), ('rot2', 0), ('rot3', 0), ('state', 'd9_error'), ('thr0', 0.0), ('thr1', 26.0), ('thr2', 27.0), ('thr3', 26.0), ('time', 1.7), ('watertemp', -2273.69), ('yaw', 0.0)]
[('compass', 0.0), ('cur0', 0.0), ('cur1', 0.0), ('cur2', 0.0), ('datetime', '2019-09-11 11:49:55.561463'), ('depth', 366518.94), ('flw0', 0), ('flw1', 0), ('flw2', 0), ('flw3', 0), ('lipoC2', 3.86), ('lipoC3S3', 4.3), ('mgs', 1), ('pitch', 0.0), ('roll', 0.0), ('rot0', 0), ('rot1', 0), ('rot2', 0), ('rot3', 0), ('state', 'd9_error'), ('thr0', 0.0), ('thr1', 26.0), ('thr2', 27.0), ('thr3', 26.0), ('time', 1.86), ('watertemp', -2273.69), ('yaw', 0.0)]
[('compass', 0.0), ('cur0', 0.0), ('cur1', 0.0), ('cur2', 0.0), ('datetime', '2019-09-11 11:49:55.763436'), ('depth', 366518.94), ('flw0', 0), ('flw1', 0), ('flw2', 0), ('flw3', 0), ('lipoC2', 3.87), ('lipoC3S3', 4.31), ('mgs', 1), ('pitch', 0.0), ('roll', 0.0), ('rot0', 0), ('rot1', 0), ('rot2', 0), ('rot3', 0), ('state', 'd9_error'), ('thr0', 0.0), ('thr1', 26.0), ('thr2', 27.0), ('thr3', 26.0), ('time', 2.01), ('watertemp', -2273.69), ('yaw', 0.0)]
[('compass', 0.0), ('cur0', 0.0), ('cur1', 0.0), ('cur2', 0.0), ('datetime', '2019-09-11 11:49:55.965571'), ('depth', 366518.94), ('flw0', 0), ('flw1', 0), ('flw2', 0), ('flw3', 0), ('lipoC2', 3.85), ('lipoC3S3', 4.3), ('mgs', 1), ('pitch', 0.0), ('roll', 0.0), ('rot0', 0), ('rot1', 0), ('rot2', 0), ('rot3', 0), ('state', 'd9_error'), ('thr0', 0.0), ('thr1', 27.0), ('thr2', 26.0), ('thr3', 27.0), ('time', 2.33), ('watertemp', -2273.69), ('yaw', 0.0)]
[('compass', 0.0), ('cur0', 0.0), ('cur1', 0.0), ('cur2', 0.0), ('datetime', '2019-09-11 11:49:56.177995'), ('depth', 366518.94), ('flw0', 0), ('flw1', 0), ('flw2', 0), ('flw3', 0), ('lipoC2', 3.88), ('lipoC3S3', 4.32), ('mgs', 1), ('pitch', 0.0), ('roll', 0.0), ('rot0', 0), ('rot1', 0), ('rot2', 0), ('rot3', 0), ('state', 'd9_error'), ('thr0', 0.0), ('thr1', 26.0), ('thr2', 27.0), ('thr3', 26.0), ('time', 2.48), ('watertemp', -2273.69), ('yaw', 0.0)]
[('compass', 0.0), ('cur0', 0.0), ('cur1', 0.0), ('cur2', 0.0), ('datetime', '2019-09-11 11:49:56.382281'), ('depth', 366518.94), ('flw0', 0), ('flw1', 0), ('flw2', 0), ('flw3', 0), ('lipoC2', 3.89), ('lipoC3S3', 4.34), ('mgs', 1), ('pitch', 0.0), ('roll', 0.0), ('rot0', 0), ('rot1', 0), ('rot2', 0), ('rot3', 0), ('state', 'd9_error'), ('thr0', 0.0), ('thr1', 26.0), ('thr2', 27.0), ('thr3', 26.0), ('time', 2.64), ('watertemp', -2273.69), ('yaw', 0.0)]
[('compass', 0.0), ('cur0', 0.0), ('cur1', 0.0), ('cur2', 0.0), ('datetime', '2019-09-11 11:49:56.584391'), ('depth', 366518.94), ('flw0', 0), ('flw1', 0), ('flw2', 0), ('flw3', 0), ('lipoC2', 3.87), ('lipoC3S3', 4.31), ('mgs', 1), ('pitch', 0.0), ('roll', 0.0), ('rot0', 0), ('rot1', 0), ('rot2', 2), ('rot3', 0), ('state', 'd9_error'), ('thr0', 0.0), ('thr1', 26.0), ('thr2', 27.0), ('thr3', 26.0), ('time', 2.8), ('watertemp', -2273.69), ('yaw', 0.0)]
[('compass', 0.0), ('cur0', 0.0), ('cur1', 0.0), ('cur2', 0.0), ('datetime', '2019-09-11 11:49:56.786606'), ('depth', 366518.94), ('flw0', 0), ('flw1', 0), ('flw2', 0), ('flw3', 0), ('lipoC2', 3.88), ('lipoC3S3', 4.32), ('mgs', 1), ('pitch', 0.0), ('roll', 0.0), ('rot0', 0), ('rot1', 0), ('rot2', 6), ('rot3', 0), ('state', 'd9_error'), ('thr0', 0.0), ('thr1', 26.0), ('thr2', 27.0), ('thr3', 26.0), ('time', 3.11), ('watertemp', -2273.69), ('yaw', 0.0)]
[('compass', 0.0), ('cur0', 0.0), ('cur1', 0.0), ('cur2', 0.0), ('datetime', '2019-09-11 11:49:56.990430'), ('depth', 366518.94), ('flw0', 0), ('flw1', 0), ('flw2', 0), ('flw3', 0), ('lipoC2', 3.89), ('lipoC3S3', 4.34), ('mgs', 1), ('pitch', 0.0), ('roll', 0.0), ('rot0', 0), ('rot1', 0), ('rot2', 8), ('rot3', 0), ('state', 'd9_error'), ('thr0', 0.0), ('thr1', 26.0), ('thr2', 27.0), ('thr3', 26.0), ('time', 3.27), ('watertemp', -2273.69), ('yaw', 0.0)]
[('compass', 0.0), ('cur0', 0.0), ('cur1', 0.0), ('cur2', 0.0), ('datetime', '2019-09-11 11:49:57.192462'), ('depth', 366518.94), ('flw0', 0), ('flw1', 0), ('flw2', 0), ('flw3', 0), ('lipoC2', 3.87), ('lipoC3S3', 4.34), ('mgs', 1), ('pitch', 0.0), ('roll', 0.0), ('rot0', 0), ('rot1', 0), ('rot2', 11), ('rot3', 0), ('state', 'd9_error'), ('thr0', 0.0), ('thr1', 27.0), ('thr2', 27.0), ('thr3', 26.0), ('time', 3.42), ('watertemp', -2273.69), ('yaw', 0.0)]
[('compass', 0.0), ('cur0', 0.0), ('cur1', 0.0), ('cur2', 0.0), ('datetime', '2019-09-11 11:49:57.394424'), ('depth', 366518.94), ('flw0', 0), ('flw1', 0), ('flw2', 0), ('flw3', 0), ('lipoC2', 3.88), ('lipoC3S3', 4.32), ('mgs', 1), ('pitch', 0.0), ('roll', 0.0), ('rot0', 0), ('rot1', 0), ('rot2', 15), ('rot3', 0), ('state', 'd9_error'), ('thr0', 0.0), ('thr1', 26.0), ('thr2', 27.0), ('thr3', 26.0), ('time', 3.74), ('watertemp', -2273.69), ('yaw', 0.0)]
[('compass', 0.0), ('cur0', 0.0), ('cur1', 0.0), ('cur2', 0.0), ('datetime', '2019-09-11 11:49:57.596519'), ('depth', 366518.94), ('flw0', 0), ('flw1', 0), ('flw2', 0), ('flw3', 0), ('lipoC2', 3.91), ('lipoC3S3', 4.35), ('mgs', 1), ('pitch', 0.0), ('roll', 0.0), ('rot0', 0), ('rot1', 0), ('rot2', 17), ('rot3', 0), ('state', 'd9_error'), ('thr0', 0.0), ('thr1', 27.0), ('thr2', 27.0), ('thr3', 26.0), ('time', 3.89), ('watertemp', -2273.69), ('yaw', 0.0)]
[('compass', 0.0), ('cur0', 0.0), ('cur1', 0.0), ('cur2', 0.0), ('datetime', '2019-09-11 11:49:57.798554'), ('depth', 366518.94), ('flw0', 0), ('flw1', 0), ('flw2', 0), ('flw3', 0), ('lipoC2', 3.89), ('lipoC3S3', 4.35), ('mgs', 1), ('pitch', 0.0), ('roll', 0.0), ('rot0', 0), ('rot1', 0), ('rot2', 19), ('rot3', 0), ('state', 'd9_error'), ('thr0', 0.0), ('thr1', 27.0), ('thr2', 26.0), ('thr3', 27.0), ('time', 4.05), ('watertemp', -2273.69), ('yaw', 0.0)]
[('compass', 0.0), ('cur0', 0.0), ('cur1', 0.0), ('cur2', 0.0), ('datetime', '2019-09-11 11:49:58.000736'), ('depth', 366518.94), ('flw0', 0), ('flw1', 0), ('flw2', 0), ('flw3', 0), ('lipoC2', 3.87), ('lipoC3S3', 4.34), ('mgs', 1), ('pitch', 0.0), ('roll', 0.0), ('rot0', 0), ('rot1', 0), ('rot2', 24), ('rot3', 0), ('state', 'd9_error'), ('thr0', 0.0), ('thr1', 27.0), ('thr2', 27.0), ('thr3', 27.0), ('time', 4.21), ('watertemp', -2273.69), ('yaw', 0.0)]
[('compass', 0.0), ('cur0', 0.0), ('cur1', 0.0), ('cur2', 0.0), ('datetime', '2019-09-11 11:49:58.203020'), ('depth', 366518.94), ('flw0', 0), ('flw1', 0), ('flw2', 0), ('flw3', 0), ('lipoC2', 3.88), ('lipoC3S3', 4.34), ('mgs', 1), ('pitch', 0.0), ('roll', 0.0), ('rot0', 0), ('rot1', 0), ('rot2', 26), ('rot3', 0), ('state', 'd9_error'), ('thr0', 0.0), ('thr1', 27.0), ('thr2', 26.0), ('thr3', 27.0), ('time', 4.52), ('watertemp', -2273.69), ('yaw', 0.0)]
[('compass', 0.0), ('cur0', 0.0), ('cur1', 0.0), ('cur2', 0.0), ('datetime', '2019-09-11 11:49:58.405019'), ('depth', 366518.94), ('flw0', 0), ('flw1', 0), ('flw2', 0), ('flw3', 0), ('lipoC2', 3.87), ('lipoC3S3', 4.34), ('mgs', 1), ('pitch', 0.0), ('roll', 0.0), ('rot0', 0), ('rot1', 0), ('rot2', 28), ('rot3', 0), ('state', 'd9_error'), ('thr0', 0.0), ('thr1', 26.0), ('thr2', 27.0), ('thr3', 26.0), ('time', 4.68), ('watertemp', -2273.69), ('yaw', 0.0)]
[('compass', 0.0), ('cur0', 0.0), ('cur1', 0.0), ('cur2', 0.0), ('datetime', '2019-09-11 11:49:58.606959'), ('depth', 366518.94), ('flw0', 0), ('flw1', 0), ('flw2', 0), ('flw3', 0), ('lipoC2', 3.89), ('lipoC3S3', 4.35), ('mgs', 1), ('pitch', 0.0), ('roll', 0.0), ('rot0', 0), ('rot1', 0), ('rot2', 31), ('rot3', 0), ('state', 'd9_error'), ('thr0', 0.0), ('thr1', 26.0), ('thr2', 26.0), ('thr3', 27.0), ('time', 4.83), ('watertemp', -2273.69), ('yaw', 0.0)]
[('compass', 0.0), ('cur0', 0.0), ('cur1', 0.0), ('cur2', 0.0), ('datetime', '2019-09-11 11:49:58.809043'), ('depth', 366518.94), ('flw0', 0), ('flw1', 0), ('flw2', 0), ('flw3', 0), ('lipoC2', 3.88), ('lipoC3S3', 4.34), ('mgs', 1), ('pitch', 0.0), ('roll', 0.0), ('rot0', 0), ('rot1', 0), ('rot2', 35), ('rot3', 0), ('state', 'd9_error'), ('thr0', 0.0), ('thr1', 26.0), ('thr2', 27.0), ('thr3', 26.0), ('time', 5.15), ('watertemp', -2273.69), ('yaw', 0.0)]
[('compass', 0.0), ('cur0', 0.0), ('cur1', 0.0), ('cur2', 0.0), ('datetime', '2019-09-11 11:49:59.011016'), ('depth', 366518.94), ('flw0', 0), ('flw1', 0), ('flw2', 0), ('flw3', 0), ('lipoC2', 3.9), ('lipoC3S3', 4.36), ('mgs', 1), ('pitch', 0.0), ('roll', 0.0), ('rot0', 0), ('rot1', 0), ('rot2', 37), ('rot3', 0), ('state', 'd9_error'), ('thr0', 0.0), ('thr1', 27.0), ('thr2', 26.0), ('thr3', 26.0), ('time', 5.3), ('watertemp', -2273.69), ('yaw', 0.0)]
[('compass', 0.0), ('cur0', 0.0), ('cur1', 0.0), ('cur2', 0.0), ('datetime', '2019-09-11 11:49:59.213026'), ('depth', 366518.94), ('flw0', 0), ('flw1', 0), ('flw2', 0), ('flw3', 0), ('lipoC2', 3.88), ('lipoC3S3', 4.34), ('mgs', 1), ('pitch', 0.0), ('roll', 0.0), ('rot0', 0), ('rot1', 0), ('rot2', 39), ('rot3', 0), ('state', 'd9_error'), ('thr0', 0.0), ('thr1', 26.0), ('thr2', 27.0), ('thr3', 26.0), ('time', 5.46), ('watertemp', -2273.69), ('yaw', 0.0)]
[('compass', 0.0), ('cur0', 0.0), ('cur1', 0.0), ('cur2', 0.0), ('datetime', '2019-09-11 11:49:59.414912'), ('depth', 366518.94), ('flw0', 0), ('flw1', 0), ('flw2', 0), ('flw3', 0), ('lipoC2', 3.87), ('lipoC3S3', 4.32), ('mgs', 1), ('pitch', 0.0), ('roll', 0.0), ('rot0', 0), ('rot1', 0), ('rot2', 44), ('rot3', 0), ('state', 'd9_error'), ('thr0', 0.0), ('thr1', 27.0), ('thr2', 26.0), ('thr3', 27.0), ('time', 5.77), ('watertemp', -2273.69), ('yaw', 0.0)]
[('compass', 0.0), ('cur0', 0.0), ('cur1', 0.0), ('cur2', 0.0), ('datetime', '2019-09-11 11:49:59.617361'), ('depth', 366518.94), ('flw0', 0), ('flw1', 0), ('flw2', 0), ('flw3', 0), ('lipoC2', 3.89), ('lipoC3S3', 4.35), ('mgs', 1), ('pitch', 0.0), ('roll', 0.0), ('rot0', 0), ('rot1', 0), ('rot2', 46), ('rot3', 0), ('state', 'd9_error'), ('thr0', 0.0), ('thr1', 26.0), ('thr2', 27.0), ('thr3', 27.0), ('time', 5.93), ('watertemp', -2273.69), ('yaw', 0.0)]
[('compass', 0.0), ('cur0', 0.0), ('cur1', 0.0), ('cur2', 0.0), ('datetime', '2019-09-11 11:49:59.819330'), ('depth', 366518.94), ('flw0', 0), ('flw1', 0), ('flw2', 0), ('flw3', 0), ('lipoC2', 3.88), ('lipoC3S3', 4.34), ('mgs', 1), ('pitch', 0.0), ('roll', 0.0), ('rot0', 0), ('rot1', 0), ('rot2', 48), ('rot3', 0), ('state', 'd9_error'), ('thr0', 0.0), ('thr1', 27.0), ('thr2', 26.0), ('thr3', 27.0), ('time', 6.09), ('watertemp', -2273.69), ('yaw', 0.0)]
[('compass', 0.0), ('cur0', 0.0), ('cur1', 0.0), ('cur2', 0.0), ('datetime', '2019-09-11 11:50:00.021559'), ('depth', 366518.94), ('flw0', 0), ('flw1', 0), ('flw2', 0), ('flw3', 0), ('lipoC2', 3.86), ('lipoC3S3', 4.31), ('mgs', 1), ('pitch', 0.0), ('roll', 0.0), ('rot0', 0), ('rot1', 0), ('rot2', 51), ('rot3', 0), ('state', 'd9_error'), ('thr0', 0.0), ('thr1', 26.0), ('thr2', 27.0), ('thr3', 26.0), ('time', 6.24), ('watertemp', -2273.69), ('yaw', 0.0)]
[('compass', 0.0), ('cur0', 0.0), ('cur1', 0.0), ('cur2', 0.0), ('datetime', '2019-09-11 11:50:00.223653'), ('depth', 366518.94), ('flw0', 0), ('flw1', 0), ('flw2', 0), ('flw3', 0), ('lipoC2', 3.9), ('lipoC3S3', 4.35), ('mgs', 1), ('pitch', 0.0), ('roll', 0.0), ('rot0', 0), ('rot1', 0), ('rot2', 55), ('rot3', 0), ('state', 'd9_error'), ('thr0', 0.0), ('thr1', 26.0), ('thr2', 27.0), ('thr3', 26.0), ('time', 6.56), ('watertemp', -2273.69), ('yaw', 0.0)]
[('compass', 0.0), ('cur0', 0.0), ('cur1', 0.0), ('cur2', 0.0), ('datetime', '2019-09-11 11:50:00.425977'), ('depth', 366518.94), ('flw0', 0), ('flw1', 0), ('flw2', 0), ('flw3', 0), ('lipoC2', 3.87), ('lipoC3S3', 4.34), ('mgs', 1), ('pitch', 0.0), ('roll', 0.0), ('rot0', 0), ('rot1', 0), ('rot2', 57), ('rot3', 0), ('state', 'd9_error'), ('thr0', 0.0), ('thr1', 27.0), ('thr2', 26.0), ('thr3', 27.0), ('time', 6.71), ('watertemp', -2273.69), ('yaw', 0.0)]
