[('compass', 48.49), ('cur0', 0.0), ('cur1', 0.0), ('cur2', 0.0), ('datetime', '2019-08-21 13:39:03.748874'), ('depth', -12.5), ('flw0', 0), ('flw1', 0), ('flw2', 0), ('flw3', 0), ('lipoC2', 0.0), ('lipoC3S3', 0.0), ('mgs', 0), ('pitch', 97.3), ('roll', 3.89), ('rot0', 12), ('rot1', 12), ('rot2', 0), ('rot3', 0), ('state', 'normal'), ('thr0', 27.0), ('thr1', 27.0), ('thr2', 27.0), ('thr3', 27.0), ('time', 64.42), ('watertemp', 25.33), ('yaw', 0.0)]
[('compass', 48.49), ('cur0', 0.0), ('cur1', 0.0), ('cur2', 0.0), ('datetime', '2019-08-21 13:39:03.957581'), ('depth', -12.5), ('flw0', 0), ('flw1', 0), ('flw2', 0), ('flw3', 0), ('lipoC2', 0.0), ('lipoC3S3', 0.0), ('mgs', 0), ('pitch', 97.3), ('roll', 3.89), ('rot0', 12), ('rot1', 12), ('rot2', 0), ('rot3', 0), ('state', 'normal'), ('thr0', 27.0), ('thr1', 27.0), ('thr2', 27.0), ('thr3', 27.0), ('time', 64.42), ('watertemp', 25.33), ('yaw', 0.0)]
[('compass', 48.49), ('cur0', 0.0), ('cur1', 0.0), ('cur2', 0.0), ('datetime', '2019-08-21 13:39:04.159652'), ('depth', -12.5), ('flw0', 0), ('flw1', 0), ('flw2', 0), ('flw3', 0), ('lipoC2', 0.0), ('lipoC3S3', 0.0), ('mgs', 0), ('pitch', 97.3), ('roll', 3.89), ('rot0', 12), ('rot1', 12), ('rot2', 0), ('rot3', 0), ('state', 'normal'), ('thr0', 27.0), ('thr1', 27.0), ('thr2', 27.0), ('thr3', 27.0), ('time', 64.42), ('watertemp', 25.33), ('yaw', 0.0)]
[('compass', 48.49), ('cur0', 0.0), ('cur1', 0.0), ('cur2', 0.0), ('datetime', '2019-08-21 13:39:04.361787'), ('depth', -12.5), ('flw0', 0), ('flw1', 0), ('flw2', 0), ('flw3', 0), ('lipoC2', 0.0), ('lipoC3S3', 0.0), ('mgs', 0), ('pitch', 97.3), ('roll', 3.89), ('rot0', 12), ('rot1', 12), ('rot2', 0), ('rot3', 0), ('state', 'normal'), ('thr0', 27.0), ('thr1', 27.0), ('thr2', 27.0), ('thr3', 27.0), ('time', 64.42), ('watertemp', 25.33), ('yaw', 0.0)]
[('compass', 48.49), ('cur0', 0.0), ('cur1', 0.0), ('cur2', 0.0), ('datetime', '2019-08-21 13:39:04.564097'), ('depth', -12.5), ('flw0', 0), ('flw1', 0), ('flw2', 0), ('flw3', 0), ('lipoC2', 0.0), ('lipoC3S3', 0.0), ('mgs', 0), ('pitch', 97.3), ('roll', 3.89), ('rot0', 12), ('rot1', 12), ('rot2', 0), ('rot3', 0), ('state', 'normal'), ('thr0', 27.0), ('thr1', 27.0), ('thr2', 27.0), ('thr3', 27.0), ('time', 64.42), ('watertemp', 25.33), ('yaw', 0.0)]
[('compass', 48.49), ('cur0', 0.0), ('cur1', 0.0), ('cur2', 0.0), ('datetime', '2019-08-21 13:39:04.766426'), ('depth', -12.5), ('flw0', 0), ('flw1', 0), ('flw2', 0), ('flw3', 0), ('lipoC2', 0.0), ('lipoC3S3', 0.0), ('mgs', 0), ('pitch', 97.3), ('roll', 3.89), ('rot0', 12), ('rot1', 12), ('rot2', 0), ('rot3', 0), ('state', 'normal'), ('thr0', 27.0), ('thr1', 27.0), ('thr2', 27.0), ('thr3', 27.0), ('time', 64.42), ('watertemp', 25.33), ('yaw', 0.0)]
[('compass', 48.49), ('cur0', 0.0), ('cur1', 0.0), ('cur2', 0.0), ('datetime', '2019-08-21 13:39:04.968523'), ('depth', -12.5), ('flw0', 0), ('flw1', 0), ('flw2', 0), ('flw3', 0), ('lipoC2', 0.0), ('lipoC3S3', 0.0), ('mgs', 0), ('pitch', 97.3), ('roll', 3.89), ('rot0', 12), ('rot1', 12), ('rot2', 0), ('rot3', 0), ('state', 'normal'), ('thr0', 27.0), ('thr1', 27.0), ('thr2', 27.0), ('thr3', 27.0), ('time', 64.42), ('watertemp', 25.33), ('yaw', 0.0)]
[('compass', 48.49), ('cur0', 0.0), ('cur1', 0.0), ('cur2', 0.0), ('datetime', '2019-08-21 13:39:05.170600'), ('depth', -12.5), ('flw0', 0), ('flw1', 0), ('flw2', 0), ('flw3', 0), ('lipoC2', 0.0), ('lipoC3S3', 0.0), ('mgs', 0), ('pitch', 97.3), ('roll', 3.89), ('rot0', 12), ('rot1', 12), ('rot2', 0), ('rot3', 0), ('state', 'normal'), ('thr0', 27.0), ('thr1', 27.0), ('thr2', 27.0), ('thr3', 27.0), ('time', 64.42), ('watertemp', 25.33), ('yaw', 0.0)]
[('compass', 48.49), ('cur0', 0.0), ('cur1', 0.0), ('cur2', 0.0), ('datetime', '2019-08-21 13:39:05.372622'), ('depth', -12.5), ('flw0', 0), ('flw1', 0), ('flw2', 0), ('flw3', 0), ('lipoC2', 0.0), ('lipoC3S3', 0.0), ('mgs', 0), ('pitch', 97.3), ('roll', 3.89), ('rot0', 12), ('rot1', 12), ('rot2', 0), ('rot3', 0), ('state', 'normal'), ('thr0', 27.0), ('thr1', 27.0), ('thr2', 27.0), ('thr3', 27.0), ('time', 64.42), ('watertemp', 25.33), ('yaw', 0.0)]
[('compass', 48.49), ('cur0', 0.0), ('cur1', 0.0), ('cur2', 0.0), ('datetime', '2019-08-21 13:39:05.574692'), ('depth', -12.5), ('flw0', 0), ('flw1', 0), ('flw2', 0), ('flw3', 0), ('lipoC2', 0.0), ('lipoC3S3', 0.0), ('mgs', 0), ('pitch', 97.3), ('roll', 3.89), ('rot0', 0), ('rot1', 0), ('rot2', 0), ('rot3', 0), ('state', 'normal'), ('thr0', 27.0), ('thr1', 27.0), ('thr2', 27.0), ('thr3', 27.0), ('time', 1.4), ('watertemp', 25.36), ('yaw', 0.0)]
[('compass', 48.49), ('cur0', 0.0), ('cur1', 0.0), ('cur2', 0.0), ('datetime', '2019-08-21 13:39:05.776784'), ('depth', -12.5), ('flw0', 0), ('flw1', 0), ('flw2', 0), ('flw3', 0), ('lipoC2', 0.0), ('lipoC3S3', 0.0), ('mgs', 0), ('pitch', 97.3), ('roll', 3.89), ('rot0', 0), ('rot1', 0), ('rot2', 0), ('rot3', 0), ('state', 'normal'), ('thr0', 26.0), ('thr1', 27.0), ('thr2', 27.0), ('thr3', 27.0), ('time', 1.56), ('watertemp', 25.31), ('yaw', 0.0)]
[('compass', 48.49), ('cur0', 0.0), ('cur1', 0.0), ('cur2', 0.0), ('datetime', '2019-08-21 13:39:05.978908'), ('depth', -12.5), ('flw0', 0), ('flw1', 0), ('flw2', 0), ('flw3', 0), ('lipoC2', 0.0), ('lipoC3S3', 0.0), ('mgs', 0), ('pitch', 97.3), ('roll', 3.89), ('rot0', 0), ('rot1', 0), ('rot2', 0), ('rot3', 0), ('state', 'normal'), ('thr0', 27.0), ('thr1', 27.0), ('thr2', 27.0), ('thr3', 27.0), ('time', 1.72), ('watertemp', 25.3), ('yaw', 0.0)]
[('compass', 48.49), ('cur0', 0.0), ('cur1', 0.0), ('cur2', 0.0), ('datetime', '2019-08-21 13:39:06.181073'), ('depth', -12.5), ('flw0', 0), ('flw1', 0), ('flw2', 0), ('flw3', 0), ('lipoC2', 0.0), ('lipoC3S3', 0.0), ('mgs', 0), ('pitch', 97.3), ('roll', 3.89), ('rot0', 0), ('rot1', 0), ('rot2', 0), ('rot3', 0), ('state', 'normal'), ('thr0', 26.0), ('thr1', 27.0), ('thr2', 27.0), ('thr3', 27.0), ('time', 2.05), ('watertemp', 25.31), ('yaw', 0.0)]
[('compass', 48.49), ('cur0', 0.0), ('cur1', 0.0), ('cur2', 0.0), ('datetime', '2019-08-21 13:39:06.383014'), ('depth', -12.5), ('flw0', 0), ('flw1', 0), ('flw2', 0), ('flw3', 0), ('lipoC2', 0.0), ('lipoC3S3', 0.0), ('mgs', 0), ('pitch', 97.3), ('roll', 3.89), ('rot0', 0), ('rot1', 0), ('rot2', 0), ('rot3', 0), ('state', 'normal'), ('thr0', 27.0), ('thr1', 27.0), ('thr2', 27.0), ('thr3', 27.0), ('time', 2.21), ('watertemp', 25.31), ('yaw', 0.0)]
[('compass', 48.49), ('cur0', 0.0), ('cur1', 0.0), ('cur2', 0.0), ('datetime', '2019-08-21 13:39:06.585042'), ('depth', -12.5), ('flw0', 0), ('flw1', 0), ('flw2', 0), ('flw3', 0), ('lipoC2', 0.0), ('lipoC3S3', 0.0), ('mgs', 0), ('pitch', 97.3), ('roll', 3.89), ('rot0', 0), ('rot1', 0), ('rot2', 0), ('rot3', 0), ('state', 'normal'), ('thr0', 26.0), ('thr1', 27.0), ('thr2', 27.0), ('thr3', 27.0), ('time', 2.37), ('watertemp', 25.31), ('yaw', 0.0)]
[('compass', 48.49), ('cur0', 0.84), ('cur1', 1.93), ('cur2', 0.0), ('datetime', '2019-08-21 13:39:06.787174'), ('depth', -12.5), ('flw0', 0), ('flw1', 0), ('flw2', 0), ('flw3', 0), ('lipoC2', 0.0), ('lipoC3S3', 0.0), ('mgs', 0), ('pitch', 97.3), ('roll', 3.89), ('rot0', 0), ('rot1', 0), ('rot2', 0), ('rot3', 0), ('state', 'normal'), ('thr0', 27.0), ('thr1', 27.0), ('thr2', 27.0), ('thr3', 27.0), ('time', 2.54), ('watertemp', 25.31), ('yaw', 0.0)]
[('compass', 48.49), ('cur0', 0.52), ('cur1', 1.29), ('cur2', 0.0), ('datetime', '2019-08-21 13:39:06.989457'), ('depth', -12.5), ('flw0', 0), ('flw1', 0), ('flw2', 0), ('flw3', 0), ('lipoC2', 0.0), ('lipoC3S3', 0.0), ('mgs', 0), ('pitch', 97.3), ('roll', 3.89), ('rot0', 2), ('rot1', 3), ('rot2', 0), ('rot3', 0), ('state', 'normal'), ('thr0', 27.0), ('thr1', 27.0), ('thr2', 27.0), ('thr3', 27.0), ('time', 2.86), ('watertemp', 25.31), ('yaw', 0.0)]
[('compass', 48.49), ('cur0', 0.49), ('cur1', 1.08), ('cur2', 0.0), ('datetime', '2019-08-21 13:39:07.191549'), ('depth', -12.5), ('flw0', 0), ('flw1', 0), ('flw2', 0), ('flw3', 0), ('lipoC2', 0.0), ('lipoC3S3', 0.0), ('mgs', 0), ('pitch', 97.3), ('roll', 3.89), ('rot0', 3), ('rot1', 4), ('rot2', 0), ('rot3', 0), ('state', 'normal'), ('thr0', 27.0), ('thr1', 27.0), ('thr2', 27.0), ('thr3', 27.0), ('time', 3.02), ('watertemp', 25.31), ('yaw', 0.0)]
[('compass', 48.49), ('cur0', 0.5), ('cur1', 1.23), ('cur2', 0.0), ('datetime', '2019-08-21 13:39:07.393651'), ('depth', -12.5), ('flw0', 0), ('flw1', 0), ('flw2', 0), ('flw3', 0), ('lipoC2', 0.0), ('lipoC3S3', 0.0), ('mgs', 0), ('pitch', 97.3), ('roll', 3.89), ('rot0', 5), ('rot1', 5), ('rot2', 0), ('rot3', 0), ('state', 'normal'), ('thr0', 26.0), ('thr1', 27.0), ('thr2', 27.0), ('thr3', 27.0), ('time', 3.19), ('watertemp', 25.32), ('yaw', 0.0)]
[('compass', 48.49), ('cur0', 0.49), ('cur1', 1.14), ('cur2', 0.0), ('datetime', '2019-08-21 13:39:07.597627'), ('depth', -12.5), ('flw0', 0), ('flw1', 0), ('flw2', 0), ('flw3', 0), ('lipoC2', 0.0), ('lipoC3S3', 0.0), ('mgs', 0), ('pitch', 97.3), ('roll', 3.89), ('rot0', 6), ('rot1', 6), ('rot2', 0), ('rot3', 0), ('state', 'normal'), ('thr0', 27.0), ('thr1', 27.0), ('thr2', 27.0), ('thr3', 27.0), ('time', 3.35), ('watertemp', 25.32), ('yaw', 0.0)]
[('compass', 48.49), ('cur0', 0.49), ('cur1', 1.23), ('cur2', 0.0), ('datetime', '2019-08-21 13:39:07.799754'), ('depth', -12.5), ('flw0', 0), ('flw1', 0), ('flw2', 0), ('flw3', 0), ('lipoC2', 0.0), ('lipoC3S3', 0.0), ('mgs', 0), ('pitch', 97.3), ('roll', 3.89), ('rot0', 8), ('rot1', 9), ('rot2', 0), ('rot3', 0), ('state', 'normal'), ('thr0', 27.0), ('thr1', 27.0), ('thr2', 27.0), ('thr3', 27.0), ('time', 3.67), ('watertemp', 25.31), ('yaw', 0.0)]
[('compass', 48.49), ('cur0', 0.52), ('cur1', 1.23), ('cur2', 0.0), ('datetime', '2019-08-21 13:39:08.001867'), ('depth', -12.5), ('flw0', 0), ('flw1', 0), ('flw2', 0), ('flw3', 0), ('lipoC2', 0.0), ('lipoC3S3', 0.0), ('mgs', 0), ('pitch', 97.3), ('roll', 3.89), ('rot0', 10), ('rot1', 10), ('rot2', 0), ('rot3', 0), ('state', 'normal'), ('thr0', 27.0), ('thr1', 27.0), ('thr2', 27.0), ('thr3', 27.0), ('time', 3.84), ('watertemp', 25.32), ('yaw', 0.0)]
[('compass', 48.49), ('cur0', 0.51), ('cur1', 1.17), ('cur2', 0.0), ('datetime', '2019-08-21 13:39:08.204025'), ('depth', -12.5), ('flw0', 0), ('flw1', 0), ('flw2', 0), ('flw3', 0), ('lipoC2', 0.0), ('lipoC3S3', 0.0), ('mgs', 0), ('pitch', 97.3), ('roll', 3.89), ('rot0', 11), ('rot1', 11), ('rot2', 0), ('rot3', 0), ('state', 'normal'), ('thr0', 27.0), ('thr1', 27.0), ('thr2', 27.0), ('thr3', 27.0), ('time', 4.0), ('watertemp', 25.32), ('yaw', 0.0)]
[('compass', 48.49), ('cur0', 0.51), ('cur1', 1.26), ('cur2', 0.0), ('datetime', '2019-08-21 13:39:08.405985'), ('depth', -12.5), ('flw0', 0), ('flw1', 0), ('flw2', 0), ('flw3', 0), ('lipoC2', 0.0), ('lipoC3S3', 0.0), ('mgs', 0), ('pitch', 97.3), ('roll', 3.89), ('rot0', 12), ('rot1', 12), ('rot2', 0), ('rot3', 0), ('state', 'normal'), ('thr0', 27.0), ('thr1', 27.0), ('thr2', 27.0), ('thr3', 27.0), ('time', 4.16), ('watertemp', 25.32), ('yaw', 0.0)]
[('compass', 48.49), ('cur0', 0.49), ('cur1', 1.29), ('cur2', 0.0), ('datetime', '2019-08-21 13:39:08.608037'), ('depth', -12.5), ('flw0', 0), ('flw1', 0), ('flw2', 0), ('flw3', 0), ('lipoC2', 0.0), ('lipoC3S3', 0.0), ('mgs', 0), ('pitch', 97.3), ('roll', 3.89), ('rot0', 15), ('rot1', 15), ('rot2', 0), ('rot3', 0), ('state', 'normal'), ('thr0', 27.0), ('thr1', 27.0), ('thr2', 27.0), ('thr3', 27.0), ('time', 4.49), ('watertemp', 25.32), ('yaw', 0.0)]
[('compass', 48.49), ('cur0', 0.5), ('cur1', 1.23), ('cur2', 0.0), ('datetime', '2019-08-21 13:39:08.810327'), ('depth', -12.5), ('flw0', 0), ('flw1', 0), ('flw2', 0), ('flw3', 0), ('lipoC2', 0.0), ('lipoC3S3', 0.0), ('mgs', 0), ('pitch', 97.3), ('roll', 3.89), ('rot0', 16), ('rot1', 16), ('rot2', 0), ('rot3', 0), ('state', 'normal'), ('thr0', 27.0), ('thr1', 27.0), ('thr2', 27.0), ('thr3', 27.0), ('time', 4.65), ('watertemp', 25.32), ('yaw', 0.0)]
[('compass', 48.49), ('cur0', 0.46), ('cur1', 1.26), ('cur2', 0.0), ('datetime', '2019-08-21 13:39:09.012454'), ('depth', -12.5), ('flw0', 0), ('flw1', 0), ('flw2', 0), ('flw3', 0), ('lipoC2', 0.0), ('lipoC3S3', 0.0), ('mgs', 0), ('pitch', 97.3), ('roll', 3.89), ('rot0', 17), ('rot1', 17), ('rot2', 0), ('rot3', 0), ('state', 'normal'), ('thr0', 26.0), ('thr1', 27.0), ('thr2', 27.0), ('thr3', 27.0), ('time', 4.82), ('watertemp', 25.32), ('yaw', 0.0)]
[('compass', 48.49), ('cur0', 0.45), ('cur1', 1.23), ('cur2', 0.0), ('datetime', '2019-08-21 13:39:09.214870'), ('depth', -12.5), ('flw0', 0), ('flw1', 0), ('flw2', 0), ('flw3', 0), ('lipoC2', 0.0), ('lipoC3S3', 0.0), ('mgs', 0), ('pitch', 97.3), ('roll', 3.89), ('rot0', 18), ('rot1', 19), ('rot2', 0), ('rot3', 0), ('state', 'normal'), ('thr0', 26.0), ('thr1', 27.0), ('thr2', 27.0), ('thr3', 27.0), ('time', 4.98), ('watertemp', 25.32), ('yaw', 0.0)]
[('compass', 48.49), ('cur0', 0.49), ('cur1', 1.14), ('cur2', 0.0), ('datetime', '2019-08-21 13:39:09.417067'), ('depth', -12.5), ('flw0', 0), ('flw1', 0), ('flw2', 0), ('flw3', 0), ('lipoC2', 0.0), ('lipoC3S3', 0.0), ('mgs', 0), ('pitch', 97.3), ('roll', 3.89), ('rot0', 21), ('rot1', 21), ('rot2', 0), ('rot3', 0), ('state', 'normal'), ('thr0', 27.0), ('thr1', 27.0), ('thr2', 27.0), ('thr3', 27.0), ('time', 5.3), ('watertemp', 25.32), ('yaw', 0.0)]
[('compass', 48.49), ('cur0', 0.45), ('cur1', 1.2), ('cur2', 0.0), ('datetime', '2019-08-21 13:39:09.619387'), ('depth', -12.5), ('flw0', 0), ('flw1', 0), ('flw2', 0), ('flw3', 0), ('lipoC2', 0.0), ('lipoC3S3', 0.0), ('mgs', 0), ('pitch', 97.3), ('roll', 3.89), ('rot0', 22), ('rot1', 22), ('rot2', 0), ('rot3', 0), ('state', 'normal'), ('thr0', 26.0), ('thr1', 27.0), ('thr2', 27.0), ('thr3', 27.0), ('time', 5.47), ('watertemp', 25.32), ('yaw', 0.0)]
[('compass', 48.49), ('cur0', 0.5), ('cur1', 1.23), ('cur2', 0.0), ('datetime', '2019-08-21 13:39:09.821448'), ('depth', -12.5), ('flw0', 0), ('flw1', 0), ('flw2', 0), ('flw3', 0), ('lipoC2', 0.0), ('lipoC3S3', 0.0), ('mgs', 0), ('pitch', 97.3), ('roll', 3.89), ('rot0', 23), ('rot1', 24), ('rot2', 0), ('rot3', 0), ('state', 'normal'), ('thr0', 27.0), ('thr1', 27.0), ('thr2', 27.0), ('thr3', 27.0), ('time', 5.63), ('watertemp', 25.31), ('yaw', 0.0)]
[('compass', 48.49), ('cur0', 0.45), ('cur1', 1.23), ('cur2', 0.0), ('datetime', '2019-08-21 13:39:10.023615'), ('depth', -12.5), ('flw0', 0), ('flw1', 0), ('flw2', 0), ('flw3', 0), ('lipoC2', 0.0), ('lipoC3S3', 0.0), ('mgs', 0), ('pitch', 97.3), ('roll', 3.89), ('rot0', 25), ('rot1', 25), ('rot2', 0), ('rot3', 0), ('state', 'normal'), ('thr0', 27.0), ('thr1', 27.0), ('thr2', 27.0), ('thr3', 27.0), ('time', 5.79), ('watertemp', 25.32), ('yaw', 0.0)]
[('compass', 48.49), ('cur0', 0.46), ('cur1', 1.11), ('cur2', 0.0), ('datetime', '2019-08-21 13:39:10.225687'), ('depth', -12.5), ('flw0', 0), ('flw1', 0), ('flw2', 0), ('flw3', 0), ('lipoC2', 0.0), ('lipoC3S3', 0.0), ('mgs', 0), ('pitch', 97.3), ('roll', 3.89), ('rot0', 26), ('rot1', 27), ('rot2', 0), ('rot3', 0), ('state', 'normal'), ('thr0', 27.0), ('thr1', 27.0), ('thr2', 27.0), ('thr3', 27.0), ('time', 5.96), ('watertemp', 25.32), ('yaw', 0.0)]
[('compass', 48.49), ('cur0', 0.46), ('cur1', 1.11), ('cur2', 0.0), ('datetime', '2019-08-21 13:39:10.427941'), ('depth', -12.5), ('flw0', 0), ('flw1', 0), ('flw2', 0), ('flw3', 0), ('lipoC2', 0.0), ('lipoC3S3', 0.0), ('mgs', 0), ('pitch', 97.3), ('roll', 3.89), ('rot0', 28), ('rot1', 28), ('rot2', 0), ('rot3', 0), ('state', 'normal'), ('thr0', 27.0), ('thr1', 27.0), ('thr2', 27.0), ('thr3', 27.0), ('time', 6.28), ('watertemp', 25.32), ('yaw', 0.0)]
[('compass', 48.49), ('cur0', 0.49), ('cur1', 1.23), ('cur2', 0.0), ('datetime', '2019-08-21 13:39:10.629937'), ('depth', -12.5), ('flw0', 0), ('flw1', 0), ('flw2', 0), ('flw3', 0), ('lipoC2', 0.0), ('lipoC3S3', 0.0), ('mgs', 0), ('pitch', 97.3), ('roll', 3.89), ('rot0', 30), ('rot1', 30), ('rot2', 0), ('rot3', 0), ('state', 'normal'), ('thr0', 27.0), ('thr1', 27.0), ('thr2', 27.0), ('thr3', 27.0), ('time', 6.45), ('watertemp', 25.32), ('yaw', 0.0)]
[('compass', 48.49), ('cur0', 0.5), ('cur1', 1.17), ('cur2', 0.0), ('datetime', '2019-08-21 13:39:10.831978'), ('depth', -12.5), ('flw0', 0), ('flw1', 0), ('flw2', 0), ('flw3', 0), ('lipoC2', 0.0), ('lipoC3S3', 0.0), ('mgs', 0), ('pitch', 97.3), ('roll', 3.89), ('rot0', 31), ('rot1', 31), ('rot2', 0), ('rot3', 0), ('state', 'normal'), ('thr0', 27.0), ('thr1', 27.0), ('thr2', 27.0), ('thr3', 27.0), ('time', 6.61), ('watertemp', 25.32), ('yaw', 0.0)]
[('compass', 48.49), ('cur0', 0.48), ('cur1', 1.14), ('cur2', 0.0), ('datetime', '2019-08-21 13:39:11.034250'), ('depth', -12.5), ('flw0', 0), ('flw1', 0), ('flw2', 0), ('flw3', 0), ('lipoC2', 0.0), ('lipoC3S3', 0.0), ('mgs', 0), ('pitch', 97.3), ('roll', 3.89), ('rot0', 32), ('rot1', 32), ('rot2', 0), ('rot3', 0), ('state', 'normal'), ('thr0', 27.0), ('thr1', 27.0), ('thr2', 27.0), ('thr3', 27.0), ('time', 6.77), ('watertemp', 25.32), ('yaw', 0.0)]
[('compass', 48.49), ('cur0', 0.48), ('cur1', 1.2), ('cur2', 0.0), ('datetime', '2019-08-21 13:39:11.238358'), ('depth', -12.5), ('flw0', 0), ('flw1', 0), ('flw2', 0), ('flw3', 0), ('lipoC2', 0.0), ('lipoC3S3', 0.0), ('mgs', 0), ('pitch', 97.3), ('roll', 3.89), ('rot0', 35), ('rot1', 35), ('rot2', 0), ('rot3', 0), ('state', 'normal'), ('thr0', 27.0), ('thr1', 27.0), ('thr2', 27.0), ('thr3', 27.0), ('time', 7.1), ('watertemp', 25.32), ('yaw', 0.0)]
[('compass', 48.49), ('cur0', 0.5), ('cur1', 1.11), ('cur2', 0.0), ('datetime', '2019-08-21 13:39:11.440409'), ('depth', -12.5), ('flw0', 0), ('flw1', 0), ('flw2', 0), ('flw3', 0), ('lipoC2', 0.0), ('lipoC3S3', 0.0), ('mgs', 0), ('pitch', 97.3), ('roll', 3.89), ('rot0', 36), ('rot1', 36), ('rot2', 0), ('rot3', 0), ('state', 'normal'), ('thr0', 27.0), ('thr1', 27.0), ('thr2', 27.0), ('thr3', 27.0), ('time', 7.26), ('watertemp', 25.32), ('yaw', 0.0)]
[('compass', 48.49), ('cur0', 0.46), ('cur1', 1.26), ('cur2', 0.0), ('datetime', '2019-08-21 13:39:11.642495'), ('depth', -12.5), ('flw0', 0), ('flw1', 0), ('flw2', 0), ('flw3', 0), ('lipoC2', 0.0), ('lipoC3S3', 0.0), ('mgs', 0), ('pitch', 97.3), ('roll', 3.89), ('rot0', 37), ('rot1', 37), ('rot2', 0), ('rot3', 0), ('state', 'normal'), ('thr0', 27.0), ('thr1', 28.0), ('thr2', 27.0), ('thr3', 27.0), ('time', 7.43), ('watertemp', 25.31), ('yaw', 0.0)]
[('compass', 48.49), ('cur0', 0.48), ('cur1', 1.17), ('cur2', 0.0), ('datetime', '2019-08-21 13:39:11.844714'), ('depth', -12.5), ('flw0', 0), ('flw1', 0), ('flw2', 0), ('flw3', 0), ('lipoC2', 0.0), ('lipoC3S3', 0.0), ('mgs', 0), ('pitch', 97.3), ('roll', 3.89), ('rot0', 39), ('rot1', 38), ('rot2', 0), ('rot3', 0), ('state', 'normal'), ('thr0', 27.0), ('thr1', 27.0), ('thr2', 27.0), ('thr3', 27.0), ('time', 7.59), ('watertemp', 25.32), ('yaw', 0.0)]
[('compass', 48.49), ('cur0', 0.45), ('cur1', 1.11), ('cur2', 0.0), ('datetime', '2019-08-21 13:39:12.046968'), ('depth', -12.5), ('flw0', 0), ('flw1', 0), ('flw2', 0), ('flw3', 0), ('lipoC2', 0.0), ('lipoC3S3', 0.0), ('mgs', 0), ('pitch', 97.3), ('roll', 3.89), ('rot0', 41), ('rot1', 41), ('rot2', 0), ('rot3', 0), ('state', 'normal'), ('thr0', 26.0), ('thr1', 27.0), ('thr2', 27.0), ('thr3', 27.0), ('time', 7.92), ('watertemp', 25.32), ('yaw', 0.0)]
[('compass', 48.49), ('cur0', 0.5), ('cur1', 1.17), ('cur2', 0.0), ('datetime', '2019-08-21 13:39:12.249056'), ('depth', -12.5), ('flw0', 0), ('flw1', 0), ('flw2', 0), ('flw3', 0), ('lipoC2', 0.0), ('lipoC3S3', 0.0), ('mgs', 0), ('pitch', 97.3), ('roll', 3.89), ('rot0', 42), ('rot1', 42), ('rot2', 0), ('rot3', 0), ('state', 'normal'), ('thr0', 26.0), ('thr1', 27.0), ('thr2', 27.0), ('thr3', 27.0), ('time', 8.08), ('watertemp', 25.32), ('yaw', 0.0)]
[('compass', 48.49), ('cur0', 0.51), ('cur1', 1.23), ('cur2', 0.0), ('datetime', '2019-08-21 13:39:12.451212'), ('depth', -12.5), ('flw0', 0), ('flw1', 0), ('flw2', 0), ('flw3', 0), ('lipoC2', 0.0), ('lipoC3S3', 0.0), ('mgs', 0), ('pitch', 97.3), ('roll', 3.89), ('rot0', 44), ('rot1', 43), ('rot2', 0), ('rot3', 0), ('state', 'normal'), ('thr0', 27.0), ('thr1', 27.0), ('thr2', 27.0), ('thr3', 27.0), ('time', 8.24), ('watertemp', 25.31), ('yaw', 0.0)]
[('compass', 48.49), ('cur0', 0.5), ('cur1', 1.17), ('cur2', 0.0), ('datetime', '2019-08-21 13:39:12.653400'), ('depth', -12.5), ('flw0', 0), ('flw1', 0), ('flw2', 0), ('flw3', 0), ('lipoC2', 0.0), ('lipoC3S3', 0.0), ('mgs', 0), ('pitch', 97.3), ('roll', 3.89), ('rot0', 45), ('rot1', 45), ('rot2', 0), ('rot3', 0), ('state', 'normal'), ('thr0', 26.0), ('thr1', 27.0), ('thr2', 27.0), ('thr3', 27.0), ('time', 8.41), ('watertemp', 25.32), ('yaw', 0.0)]
[('compass', 48.49), ('cur0', 0.5), ('cur1', 1.29), ('cur2', 0.0), ('datetime', '2019-08-21 13:39:12.855585'), ('depth', -12.5), ('flw0', 0), ('flw1', 0), ('flw2', 0), ('flw3', 0), ('lipoC2', 0.0), ('lipoC3S3', 0.0), ('mgs', 0), ('pitch', 97.3), ('roll', 3.89), ('rot0', 47), ('rot1', 47), ('rot2', 0), ('rot3', 0), ('state', 'normal'), ('thr0', 26.0), ('thr1', 27.0), ('thr2', 27.0), ('thr3', 27.0), ('time', 8.73), ('watertemp', 25.32), ('yaw', 0.0)]
[('compass', 48.49), ('cur0', 0.48), ('cur1', 1.11), ('cur2', 0.0), ('datetime', '2019-08-21 13:39:13.058040'), ('depth', -12.5), ('flw0', 0), ('flw1', 0), ('flw2', 0), ('flw3', 0), ('lipoC2', 0.0), ('lipoC3S3', 0.0), ('mgs', 0), ('pitch', 97.3), ('roll', 3.89), ('rot0', 49), ('rot1', 48), ('rot2', 0), ('rot3', 0), ('state', 'normal'), ('thr0', 27.0), ('thr1', 27.0), ('thr2', 27.0), ('thr3', 27.0), ('time', 8.89), ('watertemp', 25.31), ('yaw', 0.0)]
[('compass', 48.49), ('cur0', 0.49), ('cur1', 1.14), ('cur2', 0.0), ('datetime', '2019-08-21 13:39:13.261217'), ('depth', -12.5), ('flw0', 0), ('flw1', 0), ('flw2', 0), ('flw3', 0), ('lipoC2', 0.0), ('lipoC3S3', 0.0), ('mgs', 0), ('pitch', 97.3), ('roll', 3.89), ('rot0', 50), ('rot1', 50), ('rot2', 0), ('rot3', 0), ('state', 'normal'), ('thr0', 26.0), ('thr1', 27.0), ('thr2', 27.0), ('thr3', 27.0), ('time', 9.06), ('watertemp', 25.32), ('yaw', 0.0)]
[('compass', 48.49), ('cur0', 0.48), ('cur1', 1.14), ('cur2', 0.0), ('datetime', '2019-08-21 13:39:13.463471'), ('depth', -12.5), ('flw0', 0), ('flw1', 0), ('flw2', 0), ('flw3', 0), ('lipoC2', 0.0), ('lipoC3S3', 0.0), ('mgs', 0), ('pitch', 97.3), ('roll', 3.89), ('rot0', 51), ('rot1', 51), ('rot2', 0), ('rot3', 0), ('state', 'normal'), ('thr0', 27.0), ('thr1', 27.0), ('thr2', 27.0), ('thr3', 27.0), ('time', 9.22), ('watertemp', 25.31), ('yaw', 0.0)]
[('compass', 48.49), ('cur0', 0.49), ('cur1', 1.05), ('cur2', 0.0), ('datetime', '2019-08-21 13:39:13.665753'), ('depth', -12.5), ('flw0', 0), ('flw1', 0), ('flw2', 0), ('flw3', 0), ('lipoC2', 0.0), ('lipoC3S3', 0.0), ('mgs', 0), ('pitch', 97.3), ('roll', 3.89), ('rot0', 54), ('rot1', 53), ('rot2', 0), ('rot3', 0), ('state', 'normal'), ('thr0', 26.0), ('thr1', 27.0), ('thr2', 27.0), ('thr3', 27.0), ('time', 9.55), ('watertemp', 25.32), ('yaw', 0.0)]
[('compass', 48.49), ('cur0', 0.5), ('cur1', 1.17), ('cur2', 0.0), ('datetime', '2019-08-21 13:39:13.868043'), ('depth', -12.5), ('flw0', 0), ('flw1', 0), ('flw2', 0), ('flw3', 0), ('lipoC2', 0.0), ('lipoC3S3', 0.0), ('mgs', 0), ('pitch', 97.3), ('roll', 3.89), ('rot0', 55), ('rot1', 54), ('rot2', 0), ('rot3', 0), ('state', 'normal'), ('thr0', 27.0), ('thr1', 27.0), ('thr2', 27.0), ('thr3', 27.0), ('time', 9.71), ('watertemp', 25.32), ('yaw', 0.0)]
[('compass', 48.49), ('cur0', 0.45), ('cur1', 1.08), ('cur2', 0.0), ('datetime', '2019-08-21 13:39:14.070092'), ('depth', -12.5), ('flw0', 0), ('flw1', 0), ('flw2', 0), ('flw3', 0), ('lipoC2', 0.0), ('lipoC3S3', 0.0), ('mgs', 0), ('pitch', 97.3), ('roll', 3.89), ('rot0', 56), ('rot1', 56), ('rot2', 0), ('rot3', 0), ('state', 'normal'), ('thr0', 27.0), ('thr1', 27.0), ('thr2', 27.0), ('thr3', 27.0), ('time', 9.87), ('watertemp', 25.32), ('yaw', 0.0)]
[('compass', 48.49), ('cur0', 0.48), ('cur1', 1.29), ('cur2', 0.0), ('datetime', '2019-08-21 13:39:14.272223'), ('depth', -12.5), ('flw0', 0), ('flw1', 0), ('flw2', 0), ('flw3', 0), ('lipoC2', 0.0), ('lipoC3S3', 0.0), ('mgs', 0), ('pitch', 97.3), ('roll', 3.89), ('rot0', 57), ('rot1', 57), ('rot2', 0), ('rot3', 0), ('state', 'normal'), ('thr0', 27.0), ('thr1', 27.0), ('thr2', 27.0), ('thr3', 27.0), ('time', 10.04), ('watertemp', 25.31), ('yaw', 0.0)]
[('compass', 48.49), ('cur0', 0.48), ('cur1', 1.11), ('cur2', 0.0), ('datetime', '2019-08-21 13:39:14.474520'), ('depth', -12.5), ('flw0', 0), ('flw1', 0), ('flw2', 0), ('flw3', 0), ('lipoC2', 0.0), ('lipoC3S3', 0.0), ('mgs', 0), ('pitch', 97.3), ('roll', 3.89), ('rot0', 59), ('rot1', 59), ('rot2', 0), ('rot3', 0), ('state', 'normal'), ('thr0', 27.0), ('thr1', 27.0), ('thr2', 27.0), ('thr3', 27.0), ('time', 10.2), ('watertemp', 25.32), ('yaw', 0.0)]
[('compass', 48.49), ('cur0', 0.44), ('cur1', 1.11), ('cur2', 0.0), ('datetime', '2019-08-21 13:39:14.676741'), ('depth', -12.5), ('flw0', 0), ('flw1', 0), ('flw2', 0), ('flw3', 0), ('lipoC2', 0.0), ('lipoC3S3', 0.0), ('mgs', 0), ('pitch', 97.3), ('roll', 3.89), ('rot0', 61), ('rot1', 61), ('rot2', 0), ('rot3', 0), ('state', 'normal'), ('thr0', 27.0), ('thr1', 27.0), ('thr2', 27.0), ('thr3', 27.0), ('time', 10.53), ('watertemp', 25.31), ('yaw', 0.0)]
[('compass', 48.49), ('cur0', 0.51), ('cur1', 1.23), ('cur2', 0.0), ('datetime', '2019-08-21 13:39:14.880483'), ('depth', -12.5), ('flw0', 0), ('flw1', 0), ('flw2', 0), ('flw3', 0), ('lipoC2', 0.0), ('lipoC3S3', 0.0), ('mgs', 0), ('pitch', 97.3), ('roll', 3.89), ('rot0', 62), ('rot1', 62), ('rot2', 0), ('rot3', 0), ('state', 'normal'), ('thr0', 27.0), ('thr1', 27.0), ('thr2', 27.0), ('thr3', 27.0), ('time', 10.69), ('watertemp', 25.31), ('yaw', 0.0)]
[('compass', 48.49), ('cur0', 0.49), ('cur1', 1.17), ('cur2', 0.0), ('datetime', '2019-08-21 13:39:15.082589'), ('depth', -12.5), ('flw0', 0), ('flw1', 0), ('flw2', 0), ('flw3', 0), ('lipoC2', 0.0), ('lipoC3S3', 0.0), ('mgs', 0), ('pitch', 97.3), ('roll', 3.89), ('rot0', 64), ('rot1', 63), ('rot2', 0), ('rot3', 0), ('state', 'normal'), ('thr0', 27.0), ('thr1', 27.0), ('thr2', 27.0), ('thr3', 27.0), ('time', 10.85), ('watertemp', 25.31), ('yaw', 0.0)]
[('compass', 48.49), ('cur0', 0.48), ('cur1', 1.05), ('cur2', 0.0), ('datetime', '2019-08-21 13:39:15.284799'), ('depth', -12.5), ('flw0', 0), ('flw1', 0), ('flw2', 0), ('flw3', 0), ('lipoC2', 0.0), ('lipoC3S3', 0.0), ('mgs', 0), ('pitch', 97.3), ('roll', 3.89), ('rot0', 65), ('rot1', 64), ('rot2', 0), ('rot3', 0), ('state', 'normal'), ('thr0', 27.0), ('thr1', 27.0), ('thr2', 27.0), ('thr3', 27.0), ('time', 11.02), ('watertemp', 25.31), ('yaw', 0.0)]
[('compass', 48.49), ('cur0', 0.48), ('cur1', 1.2), ('cur2', 0.0), ('datetime', '2019-08-21 13:39:15.487291'), ('depth', -12.5), ('flw0', 0), ('flw1', 0), ('flw2', 0), ('flw3', 0), ('lipoC2', 0.0), ('lipoC3S3', 0.0), ('mgs', 0), ('pitch', 97.3), ('roll', 3.89), ('rot0', 67), ('rot1', 67), ('rot2', 0), ('rot3', 0), ('state', 'normal'), ('thr0', 27.0), ('thr1', 27.0), ('thr2', 27.0), ('thr3', 27.0), ('time', 11.34), ('watertemp', 25.32), ('yaw', 0.0)]
[('compass', 48.49), ('cur0', 0.48), ('cur1', 1.17), ('cur2', 0.0), ('datetime', '2019-08-21 13:39:15.689961'), ('depth', -12.5), ('flw0', 0), ('flw1', 0), ('flw2', 0), ('flw3', 0), ('lipoC2', 0.0), ('lipoC3S3', 0.0), ('mgs', 0), ('pitch', 97.3), ('roll', 3.89), ('rot0', 69), ('rot1', 68), ('rot2', 0), ('rot3', 0), ('state', 'normal'), ('thr0', 27.0), ('thr1', 27.0), ('thr2', 27.0), ('thr3', 27.0), ('time', 11.51), ('watertemp', 25.31), ('yaw', 0.0)]
[('compass', 48.49), ('cur0', 0.5), ('cur1', 1.17), ('cur2', 0.0), ('datetime', '2019-08-21 13:39:15.892218'), ('depth', -12.5), ('flw0', 0), ('flw1', 0), ('flw2', 0), ('flw3', 0), ('lipoC2', 0.0), ('lipoC3S3', 0.0), ('mgs', 0), ('pitch', 97.3), ('roll', 3.89), ('rot0', 70), ('rot1', 69), ('rot2', 0), ('rot3', 0), ('state', 'normal'), ('thr0', 27.0), ('thr1', 27.0), ('thr2', 27.0), ('thr3', 27.0), ('time', 11.67), ('watertemp', 25.32), ('yaw', 0.0)]
[('compass', 48.49), ('cur0', 0.51), ('cur1', 1.2), ('cur2', 0.0), ('datetime', '2019-08-21 13:39:16.094620'), ('depth', -12.5), ('flw0', 0), ('flw1', 0), ('flw2', 0), ('flw3', 0), ('lipoC2', 0.0), ('lipoC3S3', 0.0), ('mgs', 0), ('pitch', 97.3), ('roll', 3.89), ('rot0', 71), ('rot1', 71), ('rot2', 0), ('rot3', 0), ('state', 'normal'), ('thr0', 27.0), ('thr1', 27.0), ('thr2', 27.0), ('thr3', 27.0), ('time', 11.83), ('watertemp', 25.31), ('yaw', 0.0)]
[('compass', 48.49), ('cur0', 0.46), ('cur1', 1.05), ('cur2', 0.0), ('datetime', '2019-08-21 13:39:16.297018'), ('depth', -12.5), ('flw0', 0), ('flw1', 0), ('flw2', 0), ('flw3', 0), ('lipoC2', 0.0), ('lipoC3S3', 0.0), ('mgs', 0), ('pitch', 97.3), ('roll', 3.89), ('rot0', 74), ('rot1', 73), ('rot2', 0), ('rot3', 0), ('state', 'normal'), ('thr0', 27.0), ('thr1', 27.0), ('thr2', 27.0), ('thr3', 27.0), ('time', 12.16), ('watertemp', 25.31), ('yaw', 0.0)]
[('compass', 48.49), ('cur0', 0.48), ('cur1', 1.08), ('cur2', 0.0), ('datetime', '2019-08-21 13:39:16.499216'), ('depth', -12.5), ('flw0', 0), ('flw1', 0), ('flw2', 0), ('flw3', 0), ('lipoC2', 0.0), ('lipoC3S3', 0.0), ('mgs', 0), ('pitch', 97.3), ('roll', 3.89), ('rot0', 75), ('rot1', 74), ('rot2', 0), ('rot3', 0), ('state', 'normal'), ('thr0', 27.0), ('thr1', 27.0), ('thr2', 27.0), ('thr3', 27.0), ('time', 12.32), ('watertemp', 25.31), ('yaw', 0.0)]
[('compass', 48.49), ('cur0', 0.48), ('cur1', 1.11), ('cur2', 0.0), ('datetime', '2019-08-21 13:39:16.701463'), ('depth', -12.5), ('flw0', 0), ('flw1', 0), ('flw2', 0), ('flw3', 0), ('lipoC2', 0.0), ('lipoC3S3', 0.0), ('mgs', 0), ('pitch', 97.3), ('roll', 3.89), ('rot0', 76), ('rot1', 76), ('rot2', 0), ('rot3', 0), ('state', 'normal'), ('thr0', 27.0), ('thr1', 27.0), ('thr2', 27.0), ('thr3', 27.0), ('time', 12.48), ('watertemp', 25.31), ('yaw', 0.0)]
[('compass', 48.49), ('cur0', 0.48), ('cur1', 1.14), ('cur2', 0.0), ('datetime', '2019-08-21 13:39:16.903775'), ('depth', -12.5), ('flw0', 0), ('flw1', 0), ('flw2', 0), ('flw3', 0), ('lipoC2', 0.0), ('lipoC3S3', 0.0), ('mgs', 0), ('pitch', 97.3), ('roll', 3.89), ('rot0', 78), ('rot1', 77), ('rot2', 0), ('rot3', 0), ('state', 'normal'), ('thr0', 27.0), ('thr1', 27.0), ('thr2', 27.0), ('thr3', 27.0), ('time', 12.65), ('watertemp', 25.31), ('yaw', 0.0)]
[('compass', 48.49), ('cur0', 0.45), ('cur1', 1.0), ('cur2', 0.0), ('datetime', '2019-08-21 13:39:17.106432'), ('depth', -12.5), ('flw0', 0), ('flw1', 0), ('flw2', 0), ('flw3', 0), ('lipoC2', 0.0), ('lipoC3S3', 0.0), ('mgs', 0), ('pitch', 97.3), ('roll', 3.89), ('rot0', 80), ('rot1', 79), ('rot2', 0), ('rot3', 0), ('state', 'normal'), ('thr0', 27.0), ('thr1', 27.0), ('thr2', 27.0), ('thr3', 27.0), ('time', 12.97), ('watertemp', 25.31), ('yaw', 0.0)]
[('compass', 48.49), ('cur0', 0.5), ('cur1', 1.17), ('cur2', 0.0), ('datetime', '2019-08-21 13:39:17.308617'), ('depth', -12.5), ('flw0', 0), ('flw1', 0), ('flw2', 0), ('flw3', 0), ('lipoC2', 0.0), ('lipoC3S3', 0.0), ('mgs', 0), ('pitch', 97.3), ('roll', 3.89), ('rot0', 81), ('rot1', 81), ('rot2', 0), ('rot3', 0), ('state', 'normal'), ('thr0', 26.0), ('thr1', 27.0), ('thr2', 27.0), ('thr3', 27.0), ('time', 13.14), ('watertemp', 25.31), ('yaw', 0.0)]
[('compass', 48.49), ('cur0', 0.45), ('cur1', 1.03), ('cur2', 0.0), ('datetime', '2019-08-21 13:39:17.510611'), ('depth', -12.5), ('flw0', 0), ('flw1', 0), ('flw2', 0), ('flw3', 0), ('lipoC2', 0.0), ('lipoC3S3', 0.0), ('mgs', 0), ('pitch', 97.3), ('roll', 3.89), ('rot0', 83), ('rot1', 82), ('rot2', 0), ('rot3', 0), ('state', 'normal'), ('thr0', 27.0), ('thr1', 27.0), ('thr2', 27.0), ('thr3', 27.0), ('time', 13.3), ('watertemp', 25.31), ('yaw', 0.0)]
[('compass', 48.49), ('cur0', 0.49), ('cur1', 1.08), ('cur2', 0.0), ('datetime', '2019-08-21 13:39:17.713044'), ('depth', -12.5), ('flw0', 0), ('flw1', 0), ('flw2', 0), ('flw3', 0), ('lipoC2', 0.0), ('lipoC3S3', 0.0), ('mgs', 0), ('pitch', 97.3), ('roll', 3.89), ('rot0', 84), ('rot1', 83), ('rot2', 0), ('rot3', 0), ('state', 'normal'), ('thr0', 26.0), ('thr1', 27.0), ('thr2', 27.0), ('thr3', 27.0), ('time', 13.46), ('watertemp', 25.31), ('yaw', 0.0)]
[('compass', 48.49), ('cur0', 0.51), ('cur1', 1.17), ('cur2', 0.0), ('datetime', '2019-08-21 13:39:17.915569'), ('depth', -12.5), ('flw0', 0), ('flw1', 0), ('flw2', 0), ('flw3', 0), ('lipoC2', 0.0), ('lipoC3S3', 0.0), ('mgs', 0), ('pitch', 97.3), ('roll', 3.89), ('rot0', 86), ('rot1', 85), ('rot2', 0), ('rot3', 0), ('state', 'normal'), ('thr0', 27.0), ('thr1', 27.0), ('thr2', 27.0), ('thr3', 27.0), ('time', 13.79), ('watertemp', 25.31), ('yaw', 0.0)]
[('compass', 48.49), ('cur0', 0.5), ('cur1', 1.26), ('cur2', 0.0), ('datetime', '2019-08-21 13:39:18.117962'), ('depth', -12.5), ('flw0', 0), ('flw1', 0), ('flw2', 0), ('flw3', 0), ('lipoC2', 0.0), ('lipoC3S3', 0.0), ('mgs', 0), ('pitch', 97.3), ('roll', 3.89), ('rot0', 88), ('rot1', 87), ('rot2', 0), ('rot3', 0), ('state', 'normal'), ('thr0', 27.0), ('thr1', 27.0), ('thr2', 27.0), ('thr3', 27.0), ('time', 13.95), ('watertemp', 25.31), ('yaw', 0.0)]
[('compass', 48.49), ('cur0', 0.48), ('cur1', 1.17), ('cur2', 0.0), ('datetime', '2019-08-21 13:39:18.320345'), ('depth', -12.5), ('flw0', 0), ('flw1', 0), ('flw2', 0), ('flw3', 0), ('lipoC2', 0.0), ('lipoC3S3', 0.0), ('mgs', 0), ('pitch', 97.3), ('roll', 3.89), ('rot0', 89), ('rot1', 88), ('rot2', 0), ('rot3', 0), ('state', 'normal'), ('thr0', 27.0), ('thr1', 27.0), ('thr2', 27.0), ('thr3', 27.0), ('time', 14.11), ('watertemp', 25.31), ('yaw', 0.0)]
[('compass', 48.49), ('cur0', 0.44), ('cur1', 1.08), ('cur2', 0.0), ('datetime', '2019-08-21 13:39:18.524604'), ('depth', -12.5), ('flw0', 0), ('flw1', 0), ('flw2', 0), ('flw3', 0), ('lipoC2', 0.0), ('lipoC3S3', 0.0), ('mgs', 0), ('pitch', 97.3), ('roll', 3.89), ('rot0', 90), ('rot1', 89), ('rot2', 0), ('rot3', 0), ('state', 'normal'), ('thr0', 26.0), ('thr1', 27.0), ('thr2', 27.0), ('thr3', 27.0), ('time', 14.28), ('watertemp', 25.31), ('yaw', 0.0)]
[('compass', 48.49), ('cur0', 0.48), ('cur1', 1.26), ('cur2', 0.0), ('datetime', '2019-08-21 13:39:18.727312'), ('depth', -12.5), ('flw0', 0), ('flw1', 0), ('flw2', 0), ('flw3', 0), ('lipoC2', 0.0), ('lipoC3S3', 0.0), ('mgs', 0), ('pitch', 97.3), ('roll', 3.89), ('rot0', 93), ('rot1', 92), ('rot2', 0), ('rot3', 0), ('state', 'normal'), ('thr0', 27.0), ('thr1', 27.0), ('thr2', 27.0), ('thr3', 27.0), ('time', 14.6), ('watertemp', 25.31), ('yaw', 0.0)]
[('compass', 48.49), ('cur0', 0.48), ('cur1', 1.2), ('cur2', 0.0), ('datetime', '2019-08-21 13:39:18.930130'), ('depth', -12.5), ('flw0', 0), ('flw1', 0), ('flw2', 0), ('flw3', 0), ('lipoC2', 0.0), ('lipoC3S3', 0.0), ('mgs', 0), ('pitch', 97.3), ('roll', 3.89), ('rot0', 94), ('rot1', 93), ('rot2', 0), ('rot3', 0), ('state', 'normal'), ('thr0', 27.0), ('thr1', 27.0), ('thr2', 27.0), ('thr3', 27.0), ('time', 14.77), ('watertemp', 25.31), ('yaw', 0.0)]
[('compass', 48.49), ('cur0', 0.45), ('cur1', 1.14), ('cur2', 0.0), ('datetime', '2019-08-21 13:39:19.132400'), ('depth', -12.5), ('flw0', 0), ('flw1', 0), ('flw2', 0), ('flw3', 0), ('lipoC2', 0.0), ('lipoC3S3', 0.0), ('mgs', 0), ('pitch', 97.3), ('roll', 3.89), ('rot0', 95), ('rot1', 94), ('rot2', 0), ('rot3', 0), ('state', 'normal'), ('thr0', 26.0), ('thr1', 27.0), ('thr2', 27.0), ('thr3', 27.0), ('time', 14.93), ('watertemp', 25.31), ('yaw', 0.0)]
[('compass', 48.49), ('cur0', 0.44), ('cur1', 1.08), ('cur2', 0.0), ('datetime', '2019-08-21 13:39:19.334668'), ('depth', -12.5), ('flw0', 0), ('flw1', 0), ('flw2', 0), ('flw3', 0), ('lipoC2', 0.0), ('lipoC3S3', 0.0), ('mgs', 0), ('pitch', 97.3), ('roll', 3.89), ('rot0', 97), ('rot1', 95), ('rot2', 0), ('rot3', 0), ('state', 'normal'), ('thr0', 27.0), ('thr1', 27.0), ('thr2', 27.0), ('thr3', 27.0), ('time', 15.1), ('watertemp', 25.31), ('yaw', 0.0)]
[('compass', 48.49), ('cur0', 0.49), ('cur1', 1.14), ('cur2', 0.0), ('datetime', '2019-08-21 13:39:19.537073'), ('depth', -12.5), ('flw0', 0), ('flw1', 0), ('flw2', 0), ('flw3', 0), ('lipoC2', 0.0), ('lipoC3S3', 0.0), ('mgs', 0), ('pitch', 97.3), ('roll', 3.89), ('rot0', 98), ('rot1', 97), ('rot2', 0), ('rot3', 0), ('state', 'normal'), ('thr0', 26.0), ('thr1', 27.0), ('thr2', 27.0), ('thr3', 27.0), ('time', 15.26), ('watertemp', 25.31), ('yaw', 0.0)]
[('compass', 48.49), ('cur0', 0.48), ('cur1', 1.14), ('cur2', 0.0), ('datetime', '2019-08-21 13:39:19.739728'), ('depth', -12.5), ('flw0', 0), ('flw1', 0), ('flw2', 0), ('flw3', 0), ('lipoC2', 0.0), ('lipoC3S3', 0.0), ('mgs', 0), ('pitch', 97.3), ('roll', 3.89), ('rot0', 100), ('rot1', 99), ('rot2', 0), ('rot3', 0), ('state', 'normal'), ('thr0', 27.0), ('thr1', 27.0), ('thr2', 27.0), ('thr3', 27.0), ('time', 15.59), ('watertemp', 25.31), ('yaw', 0.0)]
[('compass', 48.49), ('cur0', 0.49), ('cur1', 1.23), ('cur2', 0.0), ('datetime', '2019-08-21 13:39:19.941947'), ('depth', -12.5), ('flw0', 0), ('flw1', 0), ('flw2', 0), ('flw3', 0), ('lipoC2', 0.0), ('lipoC3S3', 0.0), ('mgs', 0), ('pitch', 97.3), ('roll', 3.89), ('rot0', 102), ('rot1', 100), ('rot2', 0), ('rot3', 0), ('state', 'normal'), ('thr0', 26.0), ('thr1', 27.0), ('thr2', 27.0), ('thr3', 27.0), ('time', 15.75), ('watertemp', 25.31), ('yaw', 0.0)]
[('compass', 48.49), ('cur0', 0.48), ('cur1', 1.14), ('cur2', 0.0), ('datetime', '2019-08-21 13:39:20.144675'), ('depth', -12.5), ('flw0', 0), ('flw1', 0), ('flw2', 0), ('flw3', 0), ('lipoC2', 0.0), ('lipoC3S3', 0.0), ('mgs', 0), ('pitch', 97.3), ('roll', 3.89), ('rot0', 103), ('rot1', 102), ('rot2', 0), ('rot3', 0), ('state', 'normal'), ('thr0', 27.0), ('thr1', 27.0), ('thr2', 27.0), ('thr3', 27.0), ('time', 15.91), ('watertemp', 25.31), ('yaw', 0.0)]
[('compass', 48.49), ('cur0', 0.45), ('cur1', 1.03), ('cur2', 0.0), ('datetime', '2019-08-21 13:39:20.346997'), ('depth', -12.5), ('flw0', 0), ('flw1', 0), ('flw2', 0), ('flw3', 0), ('lipoC2', 0.0), ('lipoC3S3', 0.0), ('mgs', 0), ('pitch', 97.3), ('roll', 3.89), ('rot0', 104), ('rot1', 103), ('rot2', 0), ('rot3', 0), ('state', 'normal'), ('thr0', 27.0), ('thr1', 33.0), ('thr2', 27.0), ('thr3', 27.0), ('time', 16.08), ('watertemp', 25.31), ('yaw', 0.0)]
[('compass', 48.49), ('cur0', 0.43), ('cur1', 1.2), ('cur2', 0.0), ('datetime', '2019-08-21 13:39:20.549486'), ('depth', -12.5), ('flw0', 0), ('flw1', 0), ('flw2', 0), ('flw3', 0), ('lipoC2', 0.0), ('lipoC3S3', 0.0), ('mgs', 0), ('pitch', 97.3), ('roll', 3.89), ('rot0', 107), ('rot1', 105), ('rot2', 0), ('rot3', 0), ('state', 'normal'), ('thr0', 26.0), ('thr1', 27.0), ('thr2', 27.0), ('thr3', 27.0), ('time', 16.4), ('watertemp', 25.31), ('yaw', 0.0)]
[('compass', 48.49), ('cur0', 0.45), ('cur1', 1.17), ('cur2', 0.0), ('datetime', '2019-08-21 13:39:20.751766'), ('depth', -12.5), ('flw0', 0), ('flw1', 0), ('flw2', 0), ('flw3', 0), ('lipoC2', 0.0), ('lipoC3S3', 0.0), ('mgs', 0), ('pitch', 97.3), ('roll', 3.89), ('rot0', 108), ('rot1', 107), ('rot2', 0), ('rot3', 0), ('state', 'normal'), ('thr0', 26.0), ('thr1', 27.0), ('thr2', 27.0), ('thr3', 27.0), ('time', 16.57), ('watertemp', 25.31), ('yaw', 0.0)]
[('compass', 48.49), ('cur0', 0.48), ('cur1', 1.14), ('cur2', 0.0), ('datetime', '2019-08-21 13:39:20.954011'), ('depth', -12.5), ('flw0', 0), ('flw1', 0), ('flw2', 0), ('flw3', 0), ('lipoC2', 0.0), ('lipoC3S3', 0.0), ('mgs', 0), ('pitch', 97.3), ('roll', 3.89), ('rot0', 109), ('rot1', 108), ('rot2', 0), ('rot3', 0), ('state', 'normal'), ('thr0', 27.0), ('thr1', 27.0), ('thr2', 27.0), ('thr3', 27.0), ('time', 16.73), ('watertemp', 25.3), ('yaw', 0.0)]
[('compass', 48.49), ('cur0', 0.48), ('cur1', 1.2), ('cur2', 0.0), ('datetime', '2019-08-21 13:39:21.156200'), ('depth', -12.5), ('flw0', 0), ('flw1', 0), ('flw2', 0), ('flw3', 0), ('lipoC2', 0.0), ('lipoC3S3', 0.0), ('mgs', 0), ('pitch', 97.3), ('roll', 3.89), ('rot0', 110), ('rot1', 109), ('rot2', 0), ('rot3', 0), ('state', 'normal'), ('thr0', 27.0), ('thr1', 27.0), ('thr2', 27.0), ('thr3', 27.0), ('time', 16.89), ('watertemp', 25.31), ('yaw', 0.0)]
[('compass', 48.49), ('cur0', 0.52), ('cur1', 1.2), ('cur2', 0.0), ('datetime', '2019-08-21 13:39:21.359672'), ('depth', -12.5), ('flw0', 0), ('flw1', 0), ('flw2', 0), ('flw3', 0), ('lipoC2', 0.0), ('lipoC3S3', 0.0), ('mgs', 0), ('pitch', 97.3), ('roll', 3.89), ('rot0', 113), ('rot1', 112), ('rot2', 0), ('rot3', 0), ('state', 'normal'), ('thr0', 26.0), ('thr1', 27.0), ('thr2', 27.0), ('thr3', 27.0), ('time', 17.22), ('watertemp', 25.31), ('yaw', 0.0)]
[('compass', 48.49), ('cur0', 0.44), ('cur1', 1.05), ('cur2', 0.0), ('datetime', '2019-08-21 13:39:21.562000'), ('depth', -12.5), ('flw0', 0), ('flw1', 0), ('flw2', 0), ('flw3', 0), ('lipoC2', 0.0), ('lipoC3S3', 0.0), ('mgs', 0), ('pitch', 97.3), ('roll', 3.89), ('rot0', 114), ('rot1', 113), ('rot2', 0), ('rot3', 0), ('state', 'normal'), ('thr0', 26.0), ('thr1', 27.0), ('thr2', 27.0), ('thr3', 27.0), ('time', 17.38), ('watertemp', 25.31), ('yaw', 0.0)]
[('compass', 48.49), ('cur0', 0.46), ('cur1', 1.11), ('cur2', 0.0), ('datetime', '2019-08-21 13:39:21.764461'), ('depth', -12.5), ('flw0', 0), ('flw1', 0), ('flw2', 0), ('flw3', 0), ('lipoC2', 0.0), ('lipoC3S3', 0.0), ('mgs', 0), ('pitch', 97.3), ('roll', 3.89), ('rot0', 115), ('rot1', 114), ('rot2', 0), ('rot3', 0), ('state', 'normal'), ('thr0', 26.0), ('thr1', 27.0), ('thr2', 27.0), ('thr3', 27.0), ('time', 17.55), ('watertemp', 25.31), ('yaw', 0.0)]
[('compass', 48.49), ('cur0', 0.48), ('cur1', 1.14), ('cur2', 0.0), ('datetime', '2019-08-21 13:39:21.966905'), ('depth', -12.5), ('flw0', 0), ('flw1', 0), ('flw2', 0), ('flw3', 0), ('lipoC2', 0.0), ('lipoC3S3', 0.0), ('mgs', 0), ('pitch', 97.3), ('roll', 3.89), ('rot0', 117), ('rot1', 115), ('rot2', 0), ('rot3', 0), ('state', 'normal'), ('thr0', 26.0), ('thr1', 27.0), ('thr2', 27.0), ('thr3', 27.0), ('time', 17.71), ('watertemp', 25.31), ('yaw', 0.0)]
[('compass', 48.49), ('cur0', 0.44), ('cur1', 1.05), ('cur2', 0.0), ('datetime', '2019-08-21 13:39:22.171466'), ('depth', -12.5), ('flw0', 0), ('flw1', 0), ('flw2', 0), ('flw3', 0), ('lipoC2', 0.0), ('lipoC3S3', 0.0), ('mgs', 0), ('pitch', 97.3), ('roll', 3.89), ('rot0', 119), ('rot1', 118), ('rot2', 0), ('rot3', 0), ('state', 'normal'), ('thr0', 27.0), ('thr1', 27.0), ('thr2', 27.0), ('thr3', 27.0), ('time', 18.04), ('watertemp', 25.31), ('yaw', 0.0)]
[('compass', 48.49), ('cur0', 0.46), ('cur1', 1.03), ('cur2', 0.0), ('datetime', '2019-08-21 13:39:22.373723'), ('depth', -12.5), ('flw0', 0), ('flw1', 0), ('flw2', 0), ('flw3', 0), ('lipoC2', 0.0), ('lipoC3S3', 0.0), ('mgs', 0), ('pitch', 97.3), ('roll', 3.89), ('rot0', 121), ('rot1', 119), ('rot2', 0), ('rot3', 0), ('state', 'normal'), ('thr0', 27.0), ('thr1', 27.0), ('thr2', 27.0), ('thr3', 27.0), ('time', 18.2), ('watertemp', 25.31), ('yaw', 0.0)]
[('compass', 48.49), ('cur0', 0.48), ('cur1', 1.17), ('cur2', 0.0), ('datetime', '2019-08-21 13:39:22.575966'), ('depth', -12.5), ('flw0', 0), ('flw1', 0), ('flw2', 0), ('flw3', 0), ('lipoC2', 0.0), ('lipoC3S3', 0.0), ('mgs', 0), ('pitch', 97.3), ('roll', 3.89), ('rot0', 122), ('rot1', 120), ('rot2', 0), ('rot3', 0), ('state', 'normal'), ('thr0', 26.0), ('thr1', 27.0), ('thr2', 27.0), ('thr3', 27.0), ('time', 18.36), ('watertemp', 25.31), ('yaw', 0.0)]
[('compass', 48.49), ('cur0', 0.45), ('cur1', 1.11), ('cur2', 0.0), ('datetime', '2019-08-21 13:39:22.778246'), ('depth', -12.5), ('flw0', 0), ('flw1', 0), ('flw2', 0), ('flw3', 0), ('lipoC2', 0.0), ('lipoC3S3', 0.0), ('mgs', 0), ('pitch', 97.3), ('roll', 3.89), ('rot0', 123), ('rot1', 122), ('rot2', 0), ('rot3', 0), ('state', 'normal'), ('thr0', 27.0), ('thr1', 27.0), ('thr2', 27.0), ('thr3', 27.0), ('time', 18.53), ('watertemp', 25.31), ('yaw', 0.0)]
[('compass', 48.49), ('cur0', 0.48), ('cur1', 1.2), ('cur2', 0.0), ('datetime', '2019-08-21 13:39:22.980852'), ('depth', -12.5), ('flw0', 0), ('flw1', 0), ('flw2', 0), ('flw3', 0), ('lipoC2', 0.0), ('lipoC3S3', 0.0), ('mgs', 0), ('pitch', 97.3), ('roll', 3.89), ('rot0', 126), ('rot1', 124), ('rot2', 0), ('rot3', 0), ('state', 'normal'), ('thr0', 27.0), ('thr1', 27.0), ('thr2', 27.0), ('thr3', 27.0), ('time', 18.85), ('watertemp', 25.31), ('yaw', 0.0)]
[('compass', 48.49), ('cur0', 0.49), ('cur1', 1.17), ('cur2', 0.0), ('datetime', '2019-08-21 13:39:23.183427'), ('depth', -12.5), ('flw0', 0), ('flw1', 0), ('flw2', 0), ('flw3', 0), ('lipoC2', 0.0), ('lipoC3S3', 0.0), ('mgs', 0), ('pitch', 97.3), ('roll', 3.89), ('rot0', 127), ('rot1', 125), ('rot2', 0), ('rot3', 0), ('state', 'normal'), ('thr0', 27.0), ('thr1', 27.0), ('thr2', 27.0), ('thr3', 27.0), ('time', 19.02), ('watertemp', 25.31), ('yaw', 0.0)]
[('compass', 48.49), ('cur0', 0.46), ('cur1', 1.14), ('cur2', 0.0), ('datetime', '2019-08-21 13:39:23.385640'), ('depth', -12.5), ('flw0', 0), ('flw1', 0), ('flw2', 0), ('flw3', 0), ('lipoC2', 0.0), ('lipoC3S3', 0.0), ('mgs', 0), ('pitch', 97.3), ('roll', 3.89), ('rot0', 128), ('rot1', 127), ('rot2', 0), ('rot3', 0), ('state', 'normal'), ('thr0', 27.0), ('thr1', 27.0), ('thr2', 27.0), ('thr3', 27.0), ('time', 19.18), ('watertemp', 25.3), ('yaw', 0.0)]
[('compass', 48.49), ('cur0', 0.48), ('cur1', 1.23), ('cur2', 0.0), ('datetime', '2019-08-21 13:39:23.587846'), ('depth', -12.5), ('flw0', 0), ('flw1', 0), ('flw2', 0), ('flw3', 0), ('lipoC2', 0.0), ('lipoC3S3', 0.0), ('mgs', 0), ('pitch', 97.3), ('roll', 3.89), ('rot0', 129), ('rot1', 128), ('rot2', 0), ('rot3', 0), ('state', 'normal'), ('thr0', 26.0), ('thr1', 27.0), ('thr2', 27.0), ('thr3', 27.0), ('time', 19.34), ('watertemp', 25.31), ('yaw', 0.0)]
[('compass', 48.49), ('cur0', 0.5), ('cur1', 1.08), ('cur2', 0.0), ('datetime', '2019-08-21 13:39:23.790206'), ('depth', -12.5), ('flw0', 0), ('flw1', 0), ('flw2', 0), ('flw3', 0), ('lipoC2', 0.0), ('lipoC3S3', 0.0), ('mgs', 0), ('pitch', 97.3), ('roll', 3.89), ('rot0', 131), ('rot1', 130), ('rot2', 0), ('rot3', 0), ('state', 'normal'), ('thr0', 27.0), ('thr1', 27.0), ('thr2', 27.0), ('thr3', 27.0), ('time', 19.51), ('watertemp', 25.31), ('yaw', 0.0)]
[('compass', 48.49), ('cur0', 0.49), ('cur1', 1.17), ('cur2', 0.0), ('datetime', '2019-08-21 13:39:23.992669'), ('depth', -12.5), ('flw0', 0), ('flw1', 0), ('flw2', 0), ('flw3', 0), ('lipoC2', 0.0), ('lipoC3S3', 0.0), ('mgs', 0), ('pitch', 97.3), ('roll', 3.89), ('rot0', 133), ('rot1', 132), ('rot2', 0), ('rot3', 0), ('state', 'normal'), ('thr0', 26.0), ('thr1', 27.0), ('thr2', 27.0), ('thr3', 27.0), ('time', 19.83), ('watertemp', 25.3), ('yaw', 0.0)]
[('compass', 48.49), ('cur0', 0.49), ('cur1', 1.23), ('cur2', 0.0), ('datetime', '2019-08-21 13:39:24.194973'), ('depth', -12.5), ('flw0', 0), ('flw1', 0), ('flw2', 0), ('flw3', 0), ('lipoC2', 0.0), ('lipoC3S3', 0.0), ('mgs', 0), ('pitch', 97.3), ('roll', 3.89), ('rot0', 134), ('rot1', 133), ('rot2', 0), ('rot3', 0), ('state', 'normal'), ('thr0', 27.0), ('thr1', 27.0), ('thr2', 27.0), ('thr3', 27.0), ('time', 20.0), ('watertemp', 25.3), ('yaw', 0.0)]
[('compass', 48.49), ('cur0', 0.48), ('cur1', 1.14), ('cur2', 0.0), ('datetime', '2019-08-21 13:39:24.397414'), ('depth', -12.5), ('flw0', 0), ('flw1', 0), ('flw2', 0), ('flw3', 0), ('lipoC2', 0.0), ('lipoC3S3', 0.0), ('mgs', 0), ('pitch', 97.3), ('roll', 3.89), ('rot0', 136), ('rot1', 134), ('rot2', 0), ('rot3', 0), ('state', 'normal'), ('thr0', 26.0), ('thr1', 27.0), ('thr2', 27.0), ('thr3', 27.0), ('time', 20.16), ('watertemp', 25.3), ('yaw', 0.0)]
[('compass', 48.49), ('cur0', 0.48), ('cur1', 1.2), ('cur2', 0.0), ('datetime', '2019-08-21 13:39:24.599805'), ('depth', -12.5), ('flw0', 0), ('flw1', 0), ('flw2', 0), ('flw3', 0), ('lipoC2', 0.0), ('lipoC3S3', 0.0), ('mgs', 0), ('pitch', 97.3), ('roll', 3.89), ('rot0', 137), ('rot1', 136), ('rot2', 0), ('rot3', 0), ('state', 'normal'), ('thr0', 26.0), ('thr1', 27.0), ('thr2', 27.0), ('thr3', 27.0), ('time', 20.33), ('watertemp', 25.31), ('yaw', 0.0)]
[('compass', 48.49), ('cur0', 0.46), ('cur1', 1.17), ('cur2', 0.0), ('datetime', '2019-08-21 13:39:24.802353'), ('depth', -12.5), ('flw0', 0), ('flw1', 0), ('flw2', 0), ('flw3', 0), ('lipoC2', 0.0), ('lipoC3S3', 0.0), ('mgs', 0), ('pitch', 97.3), ('roll', 3.89), ('rot0', 139), ('rot1', 138), ('rot2', 0), ('rot3', 0), ('state', 'normal'), ('thr0', 27.0), ('thr1', 27.0), ('thr2', 27.0), ('thr3', 27.0), ('time', 20.65), ('watertemp', 25.3), ('yaw', 0.0)]
[('compass', 48.49), ('cur0', 0.49), ('cur1', 1.2), ('cur2', 0.0), ('datetime', '2019-08-21 13:39:25.004709'), ('depth', -12.5), ('flw0', 0), ('flw1', 0), ('flw2', 0), ('flw3', 0), ('lipoC2', 0.0), ('lipoC3S3', 0.0), ('mgs', 0), ('pitch', 97.3), ('roll', 3.89), ('rot0', 141), ('rot1', 139), ('rot2', 0), ('rot3', 0), ('state', 'normal'), ('thr0', 27.0), ('thr1', 27.0), ('thr2', 27.0), ('thr3', 27.0), ('time', 20.82), ('watertemp', 25.31), ('yaw', 0.0)]
[('compass', 48.49), ('cur0', 0.46), ('cur1', 1.05), ('cur2', 0.0), ('datetime', '2019-08-21 13:39:25.206902'), ('depth', -12.5), ('flw0', 0), ('flw1', 0), ('flw2', 0), ('flw3', 0), ('lipoC2', 0.0), ('lipoC3S3', 0.0), ('mgs', 0), ('pitch', 97.3), ('roll', 3.89), ('rot0', 142), ('rot1', 141), ('rot2', 0), ('rot3', 0), ('state', 'normal'), ('thr0', 27.0), ('thr1', 27.0), ('thr2', 27.0), ('thr3', 27.0), ('time', 20.98), ('watertemp', 25.31), ('yaw', 0.0)]
[('compass', 48.49), ('cur0', 0.49), ('cur1', 1.11), ('cur2', 0.0), ('datetime', '2019-08-21 13:39:25.409342'), ('depth', -12.5), ('flw0', 0), ('flw1', 0), ('flw2', 0), ('flw3', 0), ('lipoC2', 0.0), ('lipoC3S3', 0.0), ('mgs', 0), ('pitch', 97.3), ('roll', 3.89), ('rot0', 143), ('rot1', 142), ('rot2', 0), ('rot3', 0), ('state', 'normal'), ('thr0', 26.0), ('thr1', 27.0), ('thr2', 27.0), ('thr3', 27.0), ('time', 21.14), ('watertemp', 25.31), ('yaw', 0.0)]
[('compass', 48.49), ('cur0', 0.49), ('cur1', 1.23), ('cur2', 0.0), ('datetime', '2019-08-21 13:39:25.611772'), ('depth', -12.5), ('flw0', 0), ('flw1', 0), ('flw2', 0), ('flw3', 0), ('lipoC2', 0.0), ('lipoC3S3', 0.0), ('mgs', 0), ('pitch', 97.3), ('roll', 3.89), ('rot0', 146), ('rot1', 144), ('rot2', 0), ('rot3', 0), ('state', 'normal'), ('thr0', 26.0), ('thr1', 27.0), ('thr2', 27.0), ('thr3', 27.0), ('time', 21.47), ('watertemp', 25.3), ('yaw', 0.0)]
[('compass', 48.49), ('cur0', 0.49), ('cur1', 1.2), ('cur2', 0.0), ('datetime', '2019-08-21 13:39:25.815835'), ('depth', -12.5), ('flw0', 0), ('flw1', 0), ('flw2', 0), ('flw3', 0), ('lipoC2', 0.0), ('lipoC3S3', 0.0), ('mgs', 0), ('pitch', 97.3), ('roll', 3.89), ('rot0', 147), ('rot1', 146), ('rot2', 0), ('rot3', 0), ('state', 'normal'), ('thr0', 26.0), ('thr1', 27.0), ('thr2', 27.0), ('thr3', 27.0), ('time', 21.63), ('watertemp', 25.3), ('yaw', 0.0)]
[('compass', 48.49), ('cur0', 0.49), ('cur1', 1.14), ('cur2', 0.0), ('datetime', '2019-08-21 13:39:26.018307'), ('depth', -12.5), ('flw0', 0), ('flw1', 0), ('flw2', 0), ('flw3', 0), ('lipoC2', 0.0), ('lipoC3S3', 0.0), ('mgs', 0), ('pitch', 97.3), ('roll', 3.89), ('rot0', 148), ('rot1', 147), ('rot2', 0), ('rot3', 0), ('state', 'normal'), ('thr0', 26.0), ('thr1', 27.0), ('thr2', 27.0), ('thr3', 27.0), ('time', 21.8), ('watertemp', 25.3), ('yaw', 0.0)]
[('compass', 48.49), ('cur0', 0.49), ('cur1', 1.2), ('cur2', 0.0), ('datetime', '2019-08-21 13:39:26.220604'), ('depth', -12.5), ('flw0', 0), ('flw1', 0), ('flw2', 0), ('flw3', 0), ('lipoC2', 0.0), ('lipoC3S3', 0.0), ('mgs', 0), ('pitch', 97.3), ('roll', 3.89), ('rot0', 150), ('rot1', 148), ('rot2', 0), ('rot3', 0), ('state', 'normal'), ('thr0', 27.0), ('thr1', 27.0), ('thr2', 27.0), ('thr3', 27.0), ('time', 21.96), ('watertemp', 25.3), ('yaw', 0.0)]
[('compass', 48.49), ('cur0', 0.48), ('cur1', 1.11), ('cur2', 0.0), ('datetime', '2019-08-21 13:39:26.423347'), ('depth', -12.5), ('flw0', 0), ('flw1', 0), ('flw2', 0), ('flw3', 0), ('lipoC2', 0.0), ('lipoC3S3', 0.0), ('mgs', 0), ('pitch', 97.3), ('roll', 3.89), ('rot0', 152), ('rot1', 151), ('rot2', 0), ('rot3', 0), ('state', 'normal'), ('thr0', 26.0), ('thr1', 27.0), ('thr2', 27.0), ('thr3', 27.0), ('time', 22.29), ('watertemp', 25.3), ('yaw', 0.0)]
[('compass', 48.49), ('cur0', 0.48), ('cur1', 1.23), ('cur2', 0.0), ('datetime', '2019-08-21 13:39:26.625907'), ('depth', -12.5), ('flw0', 0), ('flw1', 0), ('flw2', 0), ('flw3', 0), ('lipoC2', 0.0), ('lipoC3S3', 0.0), ('mgs', 0), ('pitch', 97.3), ('roll', 3.89), ('rot0', 153), ('rot1', 152), ('rot2', 0), ('rot3', 0), ('state', 'normal'), ('thr0', 26.0), ('thr1', 27.0), ('thr2', 27.0), ('thr3', 27.0), ('time', 22.45), ('watertemp', 25.3), ('yaw', 0.0)]
[('compass', 48.49), ('cur0', 0.45), ('cur1', 1.14), ('cur2', 0.0), ('datetime', '2019-08-21 13:39:26.828308'), ('depth', -12.5), ('flw0', 0), ('flw1', 0), ('flw2', 0), ('flw3', 0), ('lipoC2', 0.0), ('lipoC3S3', 0.0), ('mgs', 0), ('pitch', 97.3), ('roll', 3.89), ('rot0', 155), ('rot1', 153), ('rot2', 0), ('rot3', 0), ('state', 'normal'), ('thr0', 27.0), ('thr1', 27.0), ('thr2', 27.0), ('thr3', 27.0), ('time', 22.61), ('watertemp', 25.3), ('yaw', 0.0)]
[('compass', 48.49), ('cur0', 0.46), ('cur1', 1.17), ('cur2', 0.0), ('datetime', '2019-08-21 13:39:27.030560'), ('depth', -12.5), ('flw0', 0), ('flw1', 0), ('flw2', 0), ('flw3', 0), ('lipoC2', 0.0), ('lipoC3S3', 0.0), ('mgs', 0), ('pitch', 97.3), ('roll', 3.89), ('rot0', 156), ('rot1', 155), ('rot2', 0), ('rot3', 0), ('state', 'normal'), ('thr0', 26.0), ('thr1', 27.0), ('thr2', 27.0), ('thr3', 27.0), ('time', 22.78), ('watertemp', 25.3), ('yaw', 0.0)]
[('compass', 48.49), ('cur0', 0.49), ('cur1', 1.2), ('cur2', 0.0), ('datetime', '2019-08-21 13:39:27.232795'), ('depth', -12.5), ('flw0', 0), ('flw1', 0), ('flw2', 0), ('flw3', 0), ('lipoC2', 0.0), ('lipoC3S3', 0.0), ('mgs', 0), ('pitch', 97.3), ('roll', 3.89), ('rot0', 157), ('rot1', 156), ('rot2', 0), ('rot3', 0), ('state', 'normal'), ('thr0', 27.0), ('thr1', 27.0), ('thr2', 27.0), ('thr3', 27.0), ('time', 22.94), ('watertemp', 25.3), ('yaw', 0.0)]
[('compass', 48.49), ('cur0', 0.44), ('cur1', 1.14), ('cur2', 0.0), ('datetime', '2019-08-21 13:39:27.435616'), ('depth', -12.5), ('flw0', 0), ('flw1', 0), ('flw2', 0), ('flw3', 0), ('lipoC2', 0.0), ('lipoC3S3', 0.0), ('mgs', 0), ('pitch', 97.3), ('roll', 3.89), ('rot0', 160), ('rot1', 158), ('rot2', 0), ('rot3', 0), ('state', 'normal'), ('thr0', 26.0), ('thr1', 27.0), ('thr2', 27.0), ('thr3', 27.0), ('time', 23.27), ('watertemp', 25.3), ('yaw', 0.0)]
[('compass', 48.49), ('cur0', 0.46), ('cur1', 1.14), ('cur2', 0.0), ('datetime', '2019-08-21 13:39:27.637860'), ('depth', -12.5), ('flw0', 0), ('flw1', 0), ('flw2', 0), ('flw3', 0), ('lipoC2', 0.0), ('lipoC3S3', 0.0), ('mgs', 0), ('pitch', 97.3), ('roll', 3.89), ('rot0', 161), ('rot1', 160), ('rot2', 0), ('rot3', 0), ('state', 'normal'), ('thr0', 26.0), ('thr1', 27.0), ('thr2', 27.0), ('thr3', 27.0), ('time', 23.43), ('watertemp', 25.3), ('yaw', 0.0)]
[('compass', 48.49), ('cur0', 0.49), ('cur1', 1.14), ('cur2', 0.0), ('datetime', '2019-08-21 13:39:27.840146'), ('depth', -12.5), ('flw0', 0), ('flw1', 0), ('flw2', 0), ('flw3', 0), ('lipoC2', 0.0), ('lipoC3S3', 0.0), ('mgs', 0), ('pitch', 97.3), ('roll', 3.89), ('rot0', 162), ('rot1', 161), ('rot2', 0), ('rot3', 0), ('state', 'normal'), ('thr0', 27.0), ('thr1', 27.0), ('thr2', 27.0), ('thr3', 27.0), ('time', 23.59), ('watertemp', 25.3), ('yaw', 0.0)]
[('compass', 48.49), ('cur0', 0.46), ('cur1', 1.17), ('cur2', 0.0), ('datetime', '2019-08-21 13:39:28.042979'), ('depth', -12.5), ('flw0', 0), ('flw1', 0), ('flw2', 0), ('flw3', 0), ('lipoC2', 0.0), ('lipoC3S3', 0.0), ('mgs', 0), ('pitch', 97.3), ('roll', 3.89), ('rot0', 163), ('rot1', 162), ('rot2', 0), ('rot3', 0), ('state', 'normal'), ('thr0', 26.0), ('thr1', 27.0), ('thr2', 27.0), ('thr3', 27.0), ('time', 23.76), ('watertemp', 25.3), ('yaw', 0.0)]
[('compass', 48.49), ('cur0', 0.43), ('cur1', 1.17), ('cur2', 0.0), ('datetime', '2019-08-21 13:39:28.245614'), ('depth', -12.5), ('flw0', 0), ('flw1', 0), ('flw2', 0), ('flw3', 0), ('lipoC2', 0.0), ('lipoC3S3', 0.0), ('mgs', 0), ('pitch', 97.3), ('roll', 3.89), ('rot0', 166), ('rot1', 165), ('rot2', 0), ('rot3', 0), ('state', 'normal'), ('thr0', 26.0), ('thr1', 27.0), ('thr2', 27.0), ('thr3', 27.0), ('time', 24.08), ('watertemp', 25.3), ('yaw', 0.0)]
[('compass', 48.49), ('cur0', 0.49), ('cur1', 1.14), ('cur2', 0.0), ('datetime', '2019-08-21 13:39:28.447803'), ('depth', -12.5), ('flw0', 0), ('flw1', 0), ('flw2', 0), ('flw3', 0), ('lipoC2', 0.0), ('lipoC3S3', 0.0), ('mgs', 0), ('pitch', 97.3), ('roll', 3.89), ('rot0', 167), ('rot1', 166), ('rot2', 0), ('rot3', 0), ('state', 'normal'), ('thr0', 27.0), ('thr1', 27.0), ('thr2', 27.0), ('thr3', 27.0), ('time', 24.25), ('watertemp', 25.3), ('yaw', 0.0)]
[('compass', 48.49), ('cur0', 0.45), ('cur1', 1.14), ('cur2', 0.0), ('datetime', '2019-08-21 13:39:28.650315'), ('depth', -12.5), ('flw0', 0), ('flw1', 0), ('flw2', 0), ('flw3', 0), ('lipoC2', 0.0), ('lipoC3S3', 0.0), ('mgs', 0), ('pitch', 97.3), ('roll', 3.89), ('rot0', 168), ('rot1', 168), ('rot2', 0), ('rot3', 0), ('state', 'normal'), ('thr0', 26.0), ('thr1', 27.0), ('thr2', 27.0), ('thr3', 27.0), ('time', 24.41), ('watertemp', 25.3), ('yaw', 0.0)]
[('compass', 48.49), ('cur0', 0.48), ('cur1', 1.17), ('cur2', 0.0), ('datetime', '2019-08-21 13:39:28.852539'), ('depth', -12.5), ('flw0', 0), ('flw1', 0), ('flw2', 0), ('flw3', 0), ('lipoC2', 0.0), ('lipoC3S3', 0.0), ('mgs', 0), ('pitch', 97.3), ('roll', 3.89), ('rot0', 170), ('rot1', 169), ('rot2', 0), ('rot3', 0), ('state', 'normal'), ('thr0', 27.0), ('thr1', 27.0), ('thr2', 27.0), ('thr3', 27.0), ('time', 24.57), ('watertemp', 25.3), ('yaw', 0.0)]
[('compass', 48.49), ('cur0', 0.45), ('cur1', 1.08), ('cur2', 0.0), ('datetime', '2019-08-21 13:39:29.055715'), ('depth', -12.5), ('flw0', 0), ('flw1', 0), ('flw2', 0), ('flw3', 0), ('lipoC2', 0.0), ('lipoC3S3', 0.0), ('mgs', 0), ('pitch', 97.3), ('roll', 3.89), ('rot0', 172), ('rot1', 171), ('rot2', 0), ('rot3', 0), ('state', 'normal'), ('thr0', 27.0), ('thr1', 27.0), ('thr2', 27.0), ('thr3', 27.0), ('time', 24.9), ('watertemp', 25.3), ('yaw', 0.0)]
[('compass', 48.49), ('cur0', 0.5), ('cur1', 1.11), ('cur2', 0.0), ('datetime', '2019-08-21 13:39:29.258111'), ('depth', -12.5), ('flw0', 0), ('flw1', 0), ('flw2', 0), ('flw3', 0), ('lipoC2', 0.0), ('lipoC3S3', 0.0), ('mgs', 0), ('pitch', 97.3), ('roll', 3.89), ('rot0', 174), ('rot1', 173), ('rot2', 0), ('rot3', 0), ('state', 'normal'), ('thr0', 26.0), ('thr1', 27.0), ('thr2', 27.0), ('thr3', 27.0), ('time', 25.07), ('watertemp', 25.3), ('yaw', 0.0)]
[('compass', 48.49), ('cur0', 0.46), ('cur1', 1.17), ('cur2', 0.0), ('datetime', '2019-08-21 13:39:29.462238'), ('depth', -12.5), ('flw0', 0), ('flw1', 0), ('flw2', 0), ('flw3', 0), ('lipoC2', 0.0), ('lipoC3S3', 0.0), ('mgs', 0), ('pitch', 97.3), ('roll', 3.89), ('rot0', 175), ('rot1', 174), ('rot2', 0), ('rot3', 0), ('state', 'normal'), ('thr0', 27.0), ('thr1', 27.0), ('thr2', 27.0), ('thr3', 27.0), ('time', 25.23), ('watertemp', 25.3), ('yaw', 0.0)]
[('compass', 48.49), ('cur0', 0.46), ('cur1', 1.14), ('cur2', 0.0), ('datetime', '2019-08-21 13:39:29.664623'), ('depth', -12.5), ('flw0', 0), ('flw1', 0), ('flw2', 0), ('flw3', 0), ('lipoC2', 0.0), ('lipoC3S3', 0.0), ('mgs', 0), ('pitch', 97.3), ('roll', 3.89), ('rot0', 177), ('rot1', 175), ('rot2', 0), ('rot3', 0), ('state', 'normal'), ('thr0', 26.0), ('thr1', 27.0), ('thr2', 27.0), ('thr3', 27.0), ('time', 25.39), ('watertemp', 25.3), ('yaw', 0.0)]
[('compass', 48.49), ('cur0', 0.46), ('cur1', 1.08), ('cur2', 0.0), ('datetime', '2019-08-21 13:39:29.867987'), ('depth', -12.5), ('flw0', 0), ('flw1', 0), ('flw2', 0), ('flw3', 0), ('lipoC2', 0.0), ('lipoC3S3', 0.0), ('mgs', 0), ('pitch', 97.3), ('roll', 3.89), ('rot0', 179), ('rot1', 178), ('rot2', 0), ('rot3', 0), ('state', 'normal'), ('thr0', 26.0), ('thr1', 27.0), ('thr2', 27.0), ('thr3', 27.0), ('time', 25.72), ('watertemp', 25.3), ('yaw', 0.0)]
[('compass', 48.49), ('cur0', 0.48), ('cur1', 1.17), ('cur2', 0.0), ('datetime', '2019-08-21 13:39:30.070473'), ('depth', -12.5), ('flw0', 0), ('flw1', 0), ('flw2', 0), ('flw3', 0), ('lipoC2', 0.0), ('lipoC3S3', 0.0), ('mgs', 0), ('pitch', 97.3), ('roll', 3.89), ('rot0', 180), ('rot1', 179), ('rot2', 0), ('rot3', 0), ('state', 'normal'), ('thr0', 26.0), ('thr1', 27.0), ('thr2', 27.0), ('thr3', 27.0), ('time', 25.88), ('watertemp', 25.3), ('yaw', 0.0)]
[('compass', 48.49), ('cur0', 0.49), ('cur1', 1.14), ('cur2', 0.0), ('datetime', '2019-08-21 13:39:30.272729'), ('depth', -12.5), ('flw0', 0), ('flw1', 0), ('flw2', 0), ('flw3', 0), ('lipoC2', 0.0), ('lipoC3S3', 0.0), ('mgs', 0), ('pitch', 97.3), ('roll', 3.89), ('rot0', 182), ('rot1', 180), ('rot2', 0), ('rot3', 0), ('state', 'normal'), ('thr0', 26.0), ('thr1', 27.0), ('thr2', 27.0), ('thr3', 27.0), ('time', 26.05), ('watertemp', 25.3), ('yaw', 0.0)]
