[('compass', 48.49), ('cur0', 0.0), ('cur1', 0.0), ('cur2', 0.0), ('datetime', '2019-08-21 13:37:57.887962'), ('depth', -12.5), ('flw0', 0), ('flw1', 0), ('flw2', 0), ('flw3', 0), ('lipoC2', 0.0), ('lipoC3S3', 0.0), ('mgs', 0), ('pitch', 97.3), ('roll', 3.89), ('rot0', 0), ('rot1', 0), ('rot2', 0), ('rot3', 0), ('state', 'normal'), ('thr0', 27.0), ('thr1', 27.0), ('thr2', 27.0), ('thr3', 27.0), ('time', 46.45), ('watertemp', 25.37), ('yaw', 0.0)]
[('compass', 48.49), ('cur0', 0.0), ('cur1', 0.0), ('cur2', 0.0), ('datetime', '2019-08-21 13:37:58.094106'), ('depth', -12.5), ('flw0', 0), ('flw1', 0), ('flw2', 0), ('flw3', 0), ('lipoC2', 0.0), ('lipoC3S3', 0.0), ('mgs', 0), ('pitch', 97.3), ('roll', 3.89), ('rot0', 0), ('rot1', 0), ('rot2', 0), ('rot3', 0), ('state', 'normal'), ('thr0', 27.0), ('thr1', 27.0), ('thr2', 27.0), ('thr3', 27.0), ('time', 46.45), ('watertemp', 25.37), ('yaw', 0.0)]
[('compass', 48.49), ('cur0', 0.0), ('cur1', 0.0), ('cur2', 0.0), ('datetime', '2019-08-21 13:37:58.296071'), ('depth', -12.5), ('flw0', 0), ('flw1', 0), ('flw2', 0), ('flw3', 0), ('lipoC2', 0.0), ('lipoC3S3', 0.0), ('mgs', 0), ('pitch', 97.3), ('roll', 3.89), ('rot0', 0), ('rot1', 0), ('rot2', 0), ('rot3', 0), ('state', 'normal'), ('thr0', 27.0), ('thr1', 27.0), ('thr2', 27.0), ('thr3', 27.0), ('time', 46.45), ('watertemp', 25.37), ('yaw', 0.0)]
[('compass', 48.49), ('cur0', 0.0), ('cur1', 0.0), ('cur2', 0.0), ('datetime', '2019-08-21 13:37:58.498012'), ('depth', -12.5), ('flw0', 0), ('flw1', 0), ('flw2', 0), ('flw3', 0), ('lipoC2', 0.0), ('lipoC3S3', 0.0), ('mgs', 0), ('pitch', 97.3), ('roll', 3.89), ('rot0', 0), ('rot1', 0), ('rot2', 0), ('rot3', 0), ('state', 'normal'), ('thr0', 27.0), ('thr1', 27.0), ('thr2', 27.0), ('thr3', 27.0), ('time', 46.45), ('watertemp', 25.37), ('yaw', 0.0)]
[('compass', 48.49), ('cur0', 0.0), ('cur1', 0.0), ('cur2', 0.0), ('datetime', '2019-08-21 13:37:58.700040'), ('depth', -12.5), ('flw0', 0), ('flw1', 0), ('flw2', 0), ('flw3', 0), ('lipoC2', 0.0), ('lipoC3S3', 0.0), ('mgs', 0), ('pitch', 97.3), ('roll', 3.89), ('rot0', 0), ('rot1', 0), ('rot2', 0), ('rot3', 0), ('state', 'normal'), ('thr0', 27.0), ('thr1', 27.0), ('thr2', 27.0), ('thr3', 27.0), ('time', 46.45), ('watertemp', 25.37), ('yaw', 0.0)]
[('compass', 48.49), ('cur0', 0.0), ('cur1', 0.0), ('cur2', 0.0), ('datetime', '2019-08-21 13:37:58.902003'), ('depth', -12.5), ('flw0', 0), ('flw1', 0), ('flw2', 0), ('flw3', 0), ('lipoC2', 0.0), ('lipoC3S3', 0.0), ('mgs', 0), ('pitch', 97.3), ('roll', 3.89), ('rot0', 0), ('rot1', 0), ('rot2', 0), ('rot3', 0), ('state', 'normal'), ('thr0', 27.0), ('thr1', 27.0), ('thr2', 27.0), ('thr3', 27.0), ('time', 46.45), ('watertemp', 25.37), ('yaw', 0.0)]
[('compass', 48.49), ('cur0', 0.0), ('cur1', 0.0), ('cur2', 0.0), ('datetime', '2019-08-21 13:37:59.104104'), ('depth', -12.5), ('flw0', 0), ('flw1', 0), ('flw2', 0), ('flw3', 0), ('lipoC2', 0.0), ('lipoC3S3', 0.0), ('mgs', 0), ('pitch', 97.3), ('roll', 3.89), ('rot0', 0), ('rot1', 0), ('rot2', 0), ('rot3', 0), ('state', 'normal'), ('thr0', 27.0), ('thr1', 27.0), ('thr2', 27.0), ('thr3', 27.0), ('time', 46.45), ('watertemp', 25.37), ('yaw', 0.0)]
[('compass', 48.49), ('cur0', 0.0), ('cur1', 0.0), ('cur2', 0.0), ('datetime', '2019-08-21 13:37:59.306145'), ('depth', -12.5), ('flw0', 0), ('flw1', 0), ('flw2', 0), ('flw3', 0), ('lipoC2', 0.0), ('lipoC3S3', 0.0), ('mgs', 0), ('pitch', 97.3), ('roll', 3.89), ('rot0', 0), ('rot1', 0), ('rot2', 0), ('rot3', 0), ('state', 'normal'), ('thr0', 27.0), ('thr1', 27.0), ('thr2', 27.0), ('thr3', 27.0), ('time', 46.45), ('watertemp', 25.37), ('yaw', 0.0)]
[('compass', 48.49), ('cur0', 0.0), ('cur1', 0.0), ('cur2', 0.0), ('datetime', '2019-08-21 13:37:59.508070'), ('depth', -12.5), ('flw0', 0), ('flw1', 0), ('flw2', 0), ('flw3', 0), ('lipoC2', 0.0), ('lipoC3S3', 0.0), ('mgs', 0), ('pitch', 97.3), ('roll', 3.89), ('rot0', 0), ('rot1', 0), ('rot2', 0), ('rot3', 0), ('state', 'normal'), ('thr0', 27.0), ('thr1', 27.0), ('thr2', 27.0), ('thr3', 27.0), ('time', 1.4), ('watertemp', 25.4), ('yaw', 0.0)]
[('compass', 48.49), ('cur0', 0.0), ('cur1', 0.0), ('cur2', 0.0), ('datetime', '2019-08-21 13:37:59.710061'), ('depth', -12.5), ('flw0', 0), ('flw1', 0), ('flw2', 0), ('flw3', 0), ('lipoC2', 0.0), ('lipoC3S3', 0.0), ('mgs', 0), ('pitch', 97.3), ('roll', 3.89), ('rot0', 0), ('rot1', 0), ('rot2', 0), ('rot3', 0), ('state', 'normal'), ('thr0', 27.0), ('thr1', 27.0), ('thr2', 27.0), ('thr3', 27.0), ('time', 1.56), ('watertemp', 25.35), ('yaw', 0.0)]
[('compass', 48.49), ('cur0', 0.0), ('cur1', 0.0), ('cur2', 0.0), ('datetime', '2019-08-21 13:37:59.912055'), ('depth', -12.5), ('flw0', 0), ('flw1', 0), ('flw2', 0), ('flw3', 0), ('lipoC2', 0.0), ('lipoC3S3', 0.0), ('mgs', 0), ('pitch', 97.3), ('roll', 3.89), ('rot0', 0), ('rot1', 0), ('rot2', 0), ('rot3', 0), ('state', 'normal'), ('thr0', 27.0), ('thr1', 27.0), ('thr2', 27.0), ('thr3', 27.0), ('time', 1.72), ('watertemp', 25.34), ('yaw', 0.0)]
[('compass', 48.49), ('cur0', 0.0), ('cur1', 0.0), ('cur2', 0.0), ('datetime', '2019-08-21 13:38:00.114201'), ('depth', -12.5), ('flw0', 0), ('flw1', 0), ('flw2', 0), ('flw3', 0), ('lipoC2', 0.0), ('lipoC3S3', 0.0), ('mgs', 0), ('pitch', 97.3), ('roll', 3.89), ('rot0', 0), ('rot1', 0), ('rot2', 0), ('rot3', 0), ('state', 'normal'), ('thr0', 27.0), ('thr1', 27.0), ('thr2', 27.0), ('thr3', 27.0), ('time', 1.88), ('watertemp', 25.34), ('yaw', 0.0)]
[('compass', 48.49), ('cur0', 0.0), ('cur1', 0.0), ('cur2', 0.0), ('datetime', '2019-08-21 13:38:00.316572'), ('depth', -12.5), ('flw0', 0), ('flw1', 0), ('flw2', 0), ('flw3', 0), ('lipoC2', 0.0), ('lipoC3S3', 0.0), ('mgs', 0), ('pitch', 97.3), ('roll', 3.89), ('rot0', 0), ('rot1', 0), ('rot2', 0), ('rot3', 0), ('state', 'normal'), ('thr0', 27.0), ('thr1', 27.0), ('thr2', 27.0), ('thr3', 27.0), ('time', 2.21), ('watertemp', 25.35), ('yaw', 0.0)]
[('compass', 48.49), ('cur0', 0.0), ('cur1', 0.0), ('cur2', 0.0), ('datetime', '2019-08-21 13:38:00.518525'), ('depth', -12.5), ('flw0', 0), ('flw1', 0), ('flw2', 0), ('flw3', 0), ('lipoC2', 0.0), ('lipoC3S3', 0.0), ('mgs', 0), ('pitch', 97.3), ('roll', 3.89), ('rot0', 0), ('rot1', 0), ('rot2', 0), ('rot3', 0), ('state', 'normal'), ('thr0', 27.0), ('thr1', 27.0), ('thr2', 27.0), ('thr3', 27.0), ('time', 2.37), ('watertemp', 25.35), ('yaw', 0.0)]
[('compass', 48.49), ('cur0', 0.0), ('cur1', 0.0), ('cur2', 0.0), ('datetime', '2019-08-21 13:38:00.720425'), ('depth', -12.5), ('flw0', 0), ('flw1', 0), ('flw2', 0), ('flw3', 0), ('lipoC2', 0.0), ('lipoC3S3', 0.0), ('mgs', 0), ('pitch', 97.3), ('roll', 3.89), ('rot0', 0), ('rot1', 0), ('rot2', 0), ('rot3', 0), ('state', 'normal'), ('thr0', 27.0), ('thr1', 27.0), ('thr2', 27.0), ('thr3', 27.0), ('time', 2.53), ('watertemp', 25.35), ('yaw', 0.0)]
[('compass', 48.49), ('cur0', 0.74), ('cur1', 1.82), ('cur2', 0.0), ('datetime', '2019-08-21 13:38:00.922626'), ('depth', -12.5), ('flw0', 0), ('flw1', 0), ('flw2', 0), ('flw3', 0), ('lipoC2', 0.0), ('lipoC3S3', 0.0), ('mgs', 0), ('pitch', 97.3), ('roll', 3.89), ('rot0', 0), ('rot1', 0), ('rot2', 0), ('rot3', 0), ('state', 'normal'), ('thr0', 26.0), ('thr1', 27.0), ('thr2', 27.0), ('thr3', 27.0), ('time', 2.7), ('watertemp', 25.35), ('yaw', 0.0)]
[('compass', 48.49), ('cur0', 0.49), ('cur1', 1.23), ('cur2', 0.0), ('datetime', '2019-08-21 13:38:01.124904'), ('depth', -12.5), ('flw0', 0), ('flw1', 0), ('flw2', 0), ('flw3', 0), ('lipoC2', 0.0), ('lipoC3S3', 0.0), ('mgs', 0), ('pitch', 97.3), ('roll', 3.89), ('rot0', 3), ('rot1', 2), ('rot2', 0), ('rot3', 0), ('state', 'normal'), ('thr0', 27.0), ('thr1', 27.0), ('thr2', 27.0), ('thr3', 27.0), ('time', 3.02), ('watertemp', 25.35), ('yaw', 0.0)]
[('compass', 48.49), ('cur0', 0.49), ('cur1', 1.23), ('cur2', 0.0), ('datetime', '2019-08-21 13:38:01.326994'), ('depth', -12.5), ('flw0', 0), ('flw1', 0), ('flw2', 0), ('flw3', 0), ('lipoC2', 0.0), ('lipoC3S3', 0.0), ('mgs', 0), ('pitch', 97.3), ('roll', 3.89), ('rot0', 4), ('rot1', 4), ('rot2', 0), ('rot3', 0), ('state', 'normal'), ('thr0', 27.0), ('thr1', 27.0), ('thr2', 27.0), ('thr3', 27.0), ('time', 3.18), ('watertemp', 25.36), ('yaw', 0.0)]
[('compass', 48.49), ('cur0', 0.49), ('cur1', 1.23), ('cur2', 0.0), ('datetime', '2019-08-21 13:38:01.529016'), ('depth', -12.5), ('flw0', 0), ('flw1', 0), ('flw2', 0), ('flw3', 0), ('lipoC2', 0.0), ('lipoC3S3', 0.0), ('mgs', 0), ('pitch', 97.3), ('roll', 3.89), ('rot0', 5), ('rot1', 5), ('rot2', 0), ('rot3', 0), ('state', 'normal'), ('thr0', 27.0), ('thr1', 27.0), ('thr2', 27.0), ('thr3', 27.0), ('time', 3.35), ('watertemp', 25.36), ('yaw', 0.0)]
[('compass', 48.49), ('cur0', 0.48), ('cur1', 1.26), ('cur2', 0.0), ('datetime', '2019-08-21 13:38:01.732963'), ('depth', -12.5), ('flw0', 0), ('flw1', 0), ('flw2', 0), ('flw3', 0), ('lipoC2', 0.0), ('lipoC3S3', 0.0), ('mgs', 0), ('pitch', 97.3), ('roll', 3.89), ('rot0', 6), ('rot1', 6), ('rot2', 0), ('rot3', 0), ('state', 'normal'), ('thr0', 27.0), ('thr1', 27.0), ('thr2', 27.0), ('thr3', 27.0), ('time', 3.51), ('watertemp', 25.36), ('yaw', 0.0)]
[('compass', 48.49), ('cur0', 0.46), ('cur1', 1.23), ('cur2', 0.0), ('datetime', '2019-08-21 13:38:01.935093'), ('depth', -12.5), ('flw0', 0), ('flw1', 0), ('flw2', 0), ('flw3', 0), ('lipoC2', 0.0), ('lipoC3S3', 0.0), ('mgs', 0), ('pitch', 97.3), ('roll', 3.89), ('rot0', 8), ('rot1', 7), ('rot2', 0), ('rot3', 0), ('state', 'normal'), ('thr0', 27.0), ('thr1', 27.0), ('thr2', 27.0), ('thr3', 27.0), ('time', 3.83), ('watertemp', 25.36), ('yaw', 0.0)]
[('compass', 48.49), ('cur0', 0.51), ('cur1', 1.23), ('cur2', 0.0), ('datetime', '2019-08-21 13:38:02.137181'), ('depth', -12.5), ('flw0', 0), ('flw1', 0), ('flw2', 0), ('flw3', 0), ('lipoC2', 0.0), ('lipoC3S3', 0.0), ('mgs', 0), ('pitch', 97.3), ('roll', 3.89), ('rot0', 10), ('rot1', 10), ('rot2', 0), ('rot3', 0), ('state', 'normal'), ('thr0', 26.0), ('thr1', 27.0), ('thr2', 27.0), ('thr3', 27.0), ('time', 4.0), ('watertemp', 25.36), ('yaw', 0.0)]
