[('compass', -35.52), ('cur0', 0.0), ('cur1', 0.0), ('cur2', 0.0), ('datetime', '2019-08-21 12:56:40.128234'), ('depth', -12.5), ('flw0', 0), ('flw1', 0), ('flw2', 0), ('flw3', 0), ('lipoC2', 0.0), ('lipoC3S3', 0.0), ('mgs', 0), ('pitch', -1.66), ('roll', -0.76), ('rot0', 0), ('rot1', 0), ('rot2', 0), ('rot3', 0), ('state', 'normal'), ('thr0', 27.0), ('thr1', 27.0), ('thr2', 27.0), ('thr3', 27.0), ('time', 24.49), ('watertemp', 25.43), ('yaw', 0.0)]
[('compass', -35.52), ('cur0', 0.0), ('cur1', 0.0), ('cur2', 0.0), ('datetime', '2019-08-21 12:56:40.331681'), ('depth', -12.5), ('flw0', 0), ('flw1', 0), ('flw2', 0), ('flw3', 0), ('lipoC2', 0.0), ('lipoC3S3', 0.0), ('mgs', 0), ('pitch', -1.66), ('roll', -0.76), ('rot0', 0), ('rot1', 0), ('rot2', 0), ('rot3', 0), ('state', 'normal'), ('thr0', 27.0), ('thr1', 27.0), ('thr2', 27.0), ('thr3', 27.0), ('time', 24.49), ('watertemp', 25.43), ('yaw', 0.0)]
[('compass', -35.52), ('cur0', 0.0), ('cur1', 0.0), ('cur2', 0.0), ('datetime', '2019-08-21 12:56:40.535172'), ('depth', -12.5), ('flw0', 0), ('flw1', 0), ('flw2', 0), ('flw3', 0), ('lipoC2', 0.0), ('lipoC3S3', 0.0), ('mgs', 0), ('pitch', -1.66), ('roll', -0.76), ('rot0', 0), ('rot1', 0), ('rot2', 0), ('rot3', 0), ('state', 'normal'), ('thr0', 27.0), ('thr1', 27.0), ('thr2', 27.0), ('thr3', 27.0), ('time', 24.49), ('watertemp', 25.43), ('yaw', 0.0)]
[('compass', -35.52), ('cur0', 0.0), ('cur1', 0.0), ('cur2', 0.0), ('datetime', '2019-08-21 12:56:40.738637'), ('depth', -12.5), ('flw0', 0), ('flw1', 0), ('flw2', 0), ('flw3', 0), ('lipoC2', 0.0), ('lipoC3S3', 0.0), ('mgs', 0), ('pitch', -1.66), ('roll', -0.76), ('rot0', 0), ('rot1', 0), ('rot2', 0), ('rot3', 0), ('state', 'normal'), ('thr0', 27.0), ('thr1', 27.0), ('thr2', 27.0), ('thr3', 27.0), ('time', 24.49), ('watertemp', 25.43), ('yaw', 0.0)]
[('compass', -35.52), ('cur0', 0.0), ('cur1', 0.0), ('cur2', 0.0), ('datetime', '2019-08-21 12:56:40.942216'), ('depth', -12.5), ('flw0', 0), ('flw1', 0), ('flw2', 0), ('flw3', 0), ('lipoC2', 0.0), ('lipoC3S3', 0.0), ('mgs', 0), ('pitch', -1.66), ('roll', -0.76), ('rot0', 0), ('rot1', 0), ('rot2', 0), ('rot3', 0), ('state', 'normal'), ('thr0', 27.0), ('thr1', 27.0), ('thr2', 27.0), ('thr3', 27.0), ('time', 24.49), ('watertemp', 25.43), ('yaw', 0.0)]
[('compass', -35.52), ('cur0', 0.0), ('cur1', 0.0), ('cur2', 0.0), ('datetime', '2019-08-21 12:56:41.145763'), ('depth', -12.5), ('flw0', 0), ('flw1', 0), ('flw2', 0), ('flw3', 0), ('lipoC2', 0.0), ('lipoC3S3', 0.0), ('mgs', 0), ('pitch', -1.66), ('roll', -0.76), ('rot0', 0), ('rot1', 0), ('rot2', 0), ('rot3', 0), ('state', 'normal'), ('thr0', 27.0), ('thr1', 27.0), ('thr2', 27.0), ('thr3', 27.0), ('time', 24.49), ('watertemp', 25.43), ('yaw', 0.0)]
[('compass', -35.52), ('cur0', 0.0), ('cur1', 0.0), ('cur2', 0.0), ('datetime', '2019-08-21 12:56:41.349313'), ('depth', -12.5), ('flw0', 0), ('flw1', 0), ('flw2', 0), ('flw3', 0), ('lipoC2', 0.0), ('lipoC3S3', 0.0), ('mgs', 0), ('pitch', -1.66), ('roll', -0.76), ('rot0', 0), ('rot1', 0), ('rot2', 0), ('rot3', 0), ('state', 'normal'), ('thr0', 27.0), ('thr1', 27.0), ('thr2', 27.0), ('thr3', 27.0), ('time', 24.49), ('watertemp', 25.43), ('yaw', 0.0)]
[('compass', -35.52), ('cur0', 0.0), ('cur1', 0.0), ('cur2', 0.0), ('datetime', '2019-08-21 12:56:41.552498'), ('depth', -12.5), ('flw0', 0), ('flw1', 0), ('flw2', 0), ('flw3', 0), ('lipoC2', 0.0), ('lipoC3S3', 0.0), ('mgs', 0), ('pitch', -1.66), ('roll', -0.76), ('rot0', 0), ('rot1', 0), ('rot2', 0), ('rot3', 0), ('state', 'normal'), ('thr0', 27.0), ('thr1', 27.0), ('thr2', 27.0), ('thr3', 27.0), ('time', 24.49), ('watertemp', 25.43), ('yaw', 0.0)]
[('compass', -35.52), ('cur0', 0.0), ('cur1', 0.0), ('cur2', 0.0), ('datetime', '2019-08-21 12:56:41.756108'), ('depth', -12.5), ('flw0', 0), ('flw1', 0), ('flw2', 0), ('flw3', 0), ('lipoC2', 0.0), ('lipoC3S3', 0.0), ('mgs', 0), ('pitch', -1.66), ('roll', -0.76), ('rot0', 0), ('rot1', 0), ('rot2', 0), ('rot3', 0), ('state', 'normal'), ('thr0', 27.0), ('thr1', 27.0), ('thr2', 27.0), ('thr3', 27.0), ('time', 1.4), ('watertemp', 25.46), ('yaw', 0.0)]
[('compass', -35.52), ('cur0', 0.0), ('cur1', 0.0), ('cur2', 0.0), ('datetime', '2019-08-21 12:56:41.959675'), ('depth', -12.5), ('flw0', 0), ('flw1', 0), ('flw2', 0), ('flw3', 0), ('lipoC2', 0.0), ('lipoC3S3', 0.0), ('mgs', 0), ('pitch', -1.66), ('roll', -0.76), ('rot0', 0), ('rot1', 0), ('rot2', 0), ('rot3', 0), ('state', 'normal'), ('thr0', 27.0), ('thr1', 27.0), ('thr2', 27.0), ('thr3', 27.0), ('time', 1.56), ('watertemp', 25.41), ('yaw', 0.0)]
[('compass', -35.52), ('cur0', 0.0), ('cur1', 0.0), ('cur2', 0.0), ('datetime', '2019-08-21 12:56:42.162954'), ('depth', -12.5), ('flw0', 0), ('flw1', 0), ('flw2', 0), ('flw3', 0), ('lipoC2', 0.0), ('lipoC3S3', 0.0), ('mgs', 0), ('pitch', -1.66), ('roll', -0.76), ('rot0', 0), ('rot1', 0), ('rot2', 0), ('rot3', 0), ('state', 'normal'), ('thr0', 27.0), ('thr1', 27.0), ('thr2', 27.0), ('thr3', 27.0), ('time', 1.72), ('watertemp', 25.41), ('yaw', 0.0)]
[('compass', -35.52), ('cur0', 0.0), ('cur1', 0.0), ('cur2', 0.0), ('datetime', '2019-08-21 12:56:42.366990'), ('depth', -12.5), ('flw0', 0), ('flw1', 0), ('flw2', 0), ('flw3', 0), ('lipoC2', 0.0), ('lipoC3S3', 0.0), ('mgs', 0), ('pitch', -1.66), ('roll', -0.76), ('rot0', 0), ('rot1', 0), ('rot2', 0), ('rot3', 0), ('state', 'normal'), ('thr0', 27.0), ('thr1', 27.0), ('thr2', 27.0), ('thr3', 27.0), ('time', 1.88), ('watertemp', 25.41), ('yaw', 0.0)]
[('compass', -35.52), ('cur0', 0.0), ('cur1', 0.0), ('cur2', 0.0), ('datetime', '2019-08-21 12:56:42.570873'), ('depth', -12.5), ('flw0', 0), ('flw1', 0), ('flw2', 0), ('flw3', 0), ('lipoC2', 0.0), ('lipoC3S3', 0.0), ('mgs', 0), ('pitch', -1.66), ('roll', -0.76), ('rot0', 0), ('rot1', 0), ('rot2', 0), ('rot3', 0), ('state', 'normal'), ('thr0', 27.0), ('thr1', 27.0), ('thr2', 27.0), ('thr3', 27.0), ('time', 2.21), ('watertemp', 25.41), ('yaw', 0.0)]
[('compass', -35.52), ('cur0', 0.0), ('cur1', 0.0), ('cur2', 0.0), ('datetime', '2019-08-21 12:56:42.774170'), ('depth', -12.5), ('flw0', 0), ('flw1', 0), ('flw2', 0), ('flw3', 0), ('lipoC2', 0.0), ('lipoC3S3', 0.0), ('mgs', 0), ('pitch', -1.66), ('roll', -0.76), ('rot0', 0), ('rot1', 0), ('rot2', 0), ('rot3', 0), ('state', 'normal'), ('thr0', 26.0), ('thr1', 27.0), ('thr2', 27.0), ('thr3', 27.0), ('time', 2.37), ('watertemp', 25.41), ('yaw', 0.0)]
[('compass', -35.52), ('cur0', 0.0), ('cur1', 0.0), ('cur2', 0.0), ('datetime', '2019-08-21 12:56:42.977555'), ('depth', -12.5), ('flw0', 0), ('flw1', 0), ('flw2', 0), ('flw3', 0), ('lipoC2', 0.0), ('lipoC3S3', 0.0), ('mgs', 0), ('pitch', -1.66), ('roll', -0.76), ('rot0', 0), ('rot1', 0), ('rot2', 0), ('rot3', 0), ('state', 'normal'), ('thr0', 26.0), ('thr1', 27.0), ('thr2', 27.0), ('thr3', 27.0), ('time', 2.53), ('watertemp', 25.42), ('yaw', 0.0)]
[('compass', -35.52), ('cur0', 0.0), ('cur1', 0.0), ('cur2', 0.0), ('datetime', '2019-08-21 12:56:43.181128'), ('depth', -12.5), ('flw0', 0), ('flw1', 0), ('flw2', 0), ('flw3', 0), ('lipoC2', 0.0), ('lipoC3S3', 0.0), ('mgs', 0), ('pitch', -1.66), ('roll', -0.76), ('rot0', 0), ('rot1', 0), ('rot2', 0), ('rot3', 0), ('state', 'normal'), ('thr0', 27.0), ('thr1', 27.0), ('thr2', 27.0), ('thr3', 27.0), ('time', 2.7), ('watertemp', 25.42), ('yaw', 0.0)]
[('compass', -35.52), ('cur0', 0.0), ('cur1', 0.0), ('cur2', 0.0), ('datetime', '2019-08-21 12:56:43.385024'), ('depth', -12.5), ('flw0', 0), ('flw1', 0), ('flw2', 0), ('flw3', 0), ('lipoC2', 0.0), ('lipoC3S3', 0.0), ('mgs', 0), ('pitch', -1.66), ('roll', -0.76), ('rot0', 0), ('rot1', 0), ('rot2', 0), ('rot3', 0), ('state', 'normal'), ('thr0', 27.0), ('thr1', 27.0), ('thr2', 27.0), ('thr3', 27.0), ('time', 3.02), ('watertemp', 25.42), ('yaw', 0.0)]
[('compass', -35.52), ('cur0', 0.0), ('cur1', 0.0), ('cur2', 0.0), ('datetime', '2019-08-21 12:56:43.588567'), ('depth', -12.5), ('flw0', 0), ('flw1', 0), ('flw2', 0), ('flw3', 0), ('lipoC2', 0.0), ('lipoC3S3', 0.0), ('mgs', 0), ('pitch', -1.66), ('roll', -0.76), ('rot0', 0), ('rot1', 0), ('rot2', 0), ('rot3', 0), ('state', 'normal'), ('thr0', 27.0), ('thr1', 27.0), ('thr2', 27.0), ('thr3', 27.0), ('time', 3.18), ('watertemp', 25.42), ('yaw', 0.0)]
[('compass', -35.52), ('cur0', 0.0), ('cur1', 0.0), ('cur2', 0.0), ('datetime', '2019-08-21 12:56:43.792373'), ('depth', -12.5), ('flw0', 0), ('flw1', 0), ('flw2', 0), ('flw3', 0), ('lipoC2', 0.0), ('lipoC3S3', 0.0), ('mgs', 0), ('pitch', -1.66), ('roll', -0.76), ('rot0', 0), ('rot1', 0), ('rot2', 0), ('rot3', 0), ('state', 'normal'), ('thr0', 27.0), ('thr1', 27.0), ('thr2', 27.0), ('thr3', 27.0), ('time', 3.35), ('watertemp', 25.42), ('yaw', 0.0)]
[('compass', -35.52), ('cur0', 0.0), ('cur1', 0.0), ('cur2', 0.0), ('datetime', '2019-08-21 12:56:43.998430'), ('depth', -12.5), ('flw0', 0), ('flw1', 0), ('flw2', 0), ('flw3', 0), ('lipoC2', 0.0), ('lipoC3S3', 0.0), ('mgs', 0), ('pitch', -1.66), ('roll', -0.76), ('rot0', 0), ('rot1', 0), ('rot2', 0), ('rot3', 0), ('state', 'normal'), ('thr0', 27.0), ('thr1', 27.0), ('thr2', 27.0), ('thr3', 27.0), ('time', 3.51), ('watertemp', 25.42), ('yaw', 0.0)]
[('compass', -35.52), ('cur0', 0.0), ('cur1', 0.0), ('cur2', 0.0), ('datetime', '2019-08-21 12:56:44.202340'), ('depth', -12.5), ('flw0', 0), ('flw1', 0), ('flw2', 0), ('flw3', 0), ('lipoC2', 0.0), ('lipoC3S3', 0.0), ('mgs', 0), ('pitch', -1.66), ('roll', -0.76), ('rot0', 0), ('rot1', 0), ('rot2', 0), ('rot3', 0), ('state', 'normal'), ('thr0', 27.0), ('thr1', 27.0), ('thr2', 27.0), ('thr3', 27.0), ('time', 3.83), ('watertemp', 25.42), ('yaw', 0.0)]
[('compass', -35.52), ('cur0', 0.0), ('cur1', 0.0), ('cur2', 0.0), ('datetime', '2019-08-21 12:56:44.405819'), ('depth', -12.5), ('flw0', 0), ('flw1', 0), ('flw2', 0), ('flw3', 0), ('lipoC2', 0.0), ('lipoC3S3', 0.0), ('mgs', 0), ('pitch', -1.66), ('roll', -0.76), ('rot0', 0), ('rot1', 0), ('rot2', 0), ('rot3', 0), ('state', 'normal'), ('thr0', 27.0), ('thr1', 27.0), ('thr2', 27.0), ('thr3', 27.0), ('time', 4.0), ('watertemp', 25.42), ('yaw', 0.0)]
[('compass', -35.52), ('cur0', 0.0), ('cur1', 0.0), ('cur2', 0.0), ('datetime', '2019-08-21 12:56:44.609212'), ('depth', -12.5), ('flw0', 0), ('flw1', 0), ('flw2', 0), ('flw3', 0), ('lipoC2', 0.0), ('lipoC3S3', 0.0), ('mgs', 0), ('pitch', -1.66), ('roll', -0.76), ('rot0', 0), ('rot1', 0), ('rot2', 0), ('rot3', 0), ('state', 'normal'), ('thr0', 27.0), ('thr1', 27.0), ('thr2', 27.0), ('thr3', 27.0), ('time', 4.16), ('watertemp', 25.42), ('yaw', 0.0)]
[('compass', -35.52), ('cur0', 0.0), ('cur1', 0.0), ('cur2', 0.0), ('datetime', '2019-08-21 12:56:44.812978'), ('depth', -12.5), ('flw0', 0), ('flw1', 0), ('flw2', 0), ('flw3', 0), ('lipoC2', 0.0), ('lipoC3S3', 0.0), ('mgs', 0), ('pitch', -1.66), ('roll', -0.76), ('rot0', 0), ('rot1', 0), ('rot2', 0), ('rot3', 0), ('state', 'normal'), ('thr0', 27.0), ('thr1', 27.0), ('thr2', 27.0), ('thr3', 27.0), ('time', 4.32), ('watertemp', 25.42), ('yaw', 0.0)]
[('compass', -35.52), ('cur0', 0.0), ('cur1', 0.0), ('cur2', 0.0), ('datetime', '2019-08-21 12:56:45.017112'), ('depth', -12.5), ('flw0', 0), ('flw1', 0), ('flw2', 0), ('flw3', 0), ('lipoC2', 0.0), ('lipoC3S3', 0.0), ('mgs', 0), ('pitch', -1.66), ('roll', -0.76), ('rot0', 0), ('rot1', 0), ('rot2', 0), ('rot3', 0), ('state', 'normal'), ('thr0', 27.0), ('thr1', 27.0), ('thr2', 27.0), ('thr3', 27.0), ('time', 4.65), ('watertemp', 25.43), ('yaw', 0.0)]
[('compass', -35.52), ('cur0', 0.0), ('cur1', 0.0), ('cur2', 0.0), ('datetime', '2019-08-21 12:56:45.220713'), ('depth', -12.5), ('flw0', 0), ('flw1', 0), ('flw2', 0), ('flw3', 0), ('lipoC2', 0.0), ('lipoC3S3', 0.0), ('mgs', 0), ('pitch', -1.66), ('roll', -0.76), ('rot0', 0), ('rot1', 0), ('rot2', 0), ('rot3', 0), ('state', 'normal'), ('thr0', 27.0), ('thr1', 27.0), ('thr2', 27.0), ('thr3', 27.0), ('time', 4.81), ('watertemp', 25.42), ('yaw', 0.0)]
[('compass', -35.52), ('cur0', 0.0), ('cur1', 0.0), ('cur2', 0.0), ('datetime', '2019-08-21 12:56:45.424455'), ('depth', -12.5), ('flw0', 0), ('flw1', 0), ('flw2', 0), ('flw3', 0), ('lipoC2', 0.0), ('lipoC3S3', 0.0), ('mgs', 0), ('pitch', -1.66), ('roll', -0.76), ('rot0', 0), ('rot1', 0), ('rot2', 0), ('rot3', 0), ('state', 'normal'), ('thr0', 27.0), ('thr1', 27.0), ('thr2', 27.0), ('thr3', 27.0), ('time', 4.97), ('watertemp', 25.42), ('yaw', 0.0)]
[('compass', -35.52), ('cur0', 0.0), ('cur1', 0.0), ('cur2', 0.0), ('datetime', '2019-08-21 12:56:45.628190'), ('depth', -12.5), ('flw0', 0), ('flw1', 0), ('flw2', 0), ('flw3', 0), ('lipoC2', 0.0), ('lipoC3S3', 0.0), ('mgs', 0), ('pitch', -1.66), ('roll', -0.76), ('rot0', 0), ('rot1', 0), ('rot2', 0), ('rot3', 0), ('state', 'normal'), ('thr0', 27.0), ('thr1', 27.0), ('thr2', 27.0), ('thr3', 27.0), ('time', 5.14), ('watertemp', 25.43), ('yaw', 0.0)]
[('compass', -35.52), ('cur0', 0.0), ('cur1', 0.0), ('cur2', 0.0), ('datetime', '2019-08-21 12:56:45.832079'), ('depth', -12.5), ('flw0', 0), ('flw1', 0), ('flw2', 0), ('flw3', 0), ('lipoC2', 0.0), ('lipoC3S3', 0.0), ('mgs', 0), ('pitch', -1.66), ('roll', -0.76), ('rot0', 0), ('rot1', 0), ('rot2', 0), ('rot3', 0), ('state', 'normal'), ('thr0', 26.0), ('thr1', 27.0), ('thr2', 27.0), ('thr3', 27.0), ('time', 5.46), ('watertemp', 25.42), ('yaw', 0.0)]
[('compass', -35.52), ('cur0', 0.0), ('cur1', 0.0), ('cur2', 0.0), ('datetime', '2019-08-21 12:56:46.035609'), ('depth', -12.5), ('flw0', 0), ('flw1', 0), ('flw2', 0), ('flw3', 0), ('lipoC2', 0.0), ('lipoC3S3', 0.0), ('mgs', 0), ('pitch', -1.66), ('roll', -0.76), ('rot0', 0), ('rot1', 0), ('rot2', 0), ('rot3', 0), ('state', 'normal'), ('thr0', 27.0), ('thr1', 27.0), ('thr2', 27.0), ('thr3', 27.0), ('time', 5.62), ('watertemp', 25.43), ('yaw', 0.0)]
